Time_POSIX	Heading_deg	Pitch_rad	Roll_rad	Yaw_rad	Lat	Long	Alt_m_AGL
2022-04-07 05:27:49	90.10000000000001	-0.0029426042456179857	0.0004469346022233367	47.3977508	8.5456074	488.1150207519531
2022-04-07 05:27:49	90.10000000000001	-0.00011210789671167731	-0.0019351288210600615	47.3977508	8.5456073	488.1230163574219
2022-04-07 05:27:50	90.11	0.000832301564514637	0.0015709949657320976	47.3977508	8.5456073	488.12701416015625
2022-04-07 05:27:51	90.11	0.00015526643255725503	-0.0010183893609791994	47.3977508	8.5456073	488.1290283203125
2022-04-07 05:27:52	90.11	-0.0027035896200686693	0.0009430083446204662	47.3977508	8.5456074	488.1300354003906
2022-04-07 05:27:52	90.11	-0.002993765752762556	0.0005967167089693248	47.3977508	8.5456074	488.13201904296875
2022-04-07 05:27:53	90.12	-0.0007865818915888667	0.0013030037516728044	47.3977508	8.5456073	488.1330261230469
2022-04-07 05:27:54	90.12	0.001916103414259851	0.0003313531633466482	47.3977508	8.5456073	488.1360168457031
2022-04-07 05:27:55	90.12	0.00013713352382183075	0.0005297635798342526	47.3977508	8.5456073	488.1380310058594
2022-04-07 05:27:56	90.12	7.67227029427886e-05	0.0012942173052579165	47.3977508	8.5456073	488.1380310058594
2022-04-07 05:27:57	90.12	0.0004811793623957783	0.0020420143846422434	47.3977508	8.5456073	488.1380310058594
2022-04-07 05:27:57	90.12	0.0015164905926212668	0.001246160245500505	47.3977508	8.5456073	488.1390380859375
2022-04-07 05:27:58	90.12	-0.0016112017910927534	-0.0011250462848693132	47.3977508	8.5456073	488.1400146484375
2022-04-07 05:27:59	90.13	-0.00011873722542077303	-0.0023414466995745897	47.3977508	8.5456073	488.14501953125
2022-04-07 05:27:59	90.13	0.0002973787486553192	0.0010457270545884967	47.3977508	8.5456073	488.14501953125
2022-04-07 05:28:00	90.14	0.0028773117810487747	-0.0007600078824907541	47.3977508	8.5456073	488.14703369140625
2022-04-07 05:28:01	90.14	0.003697845619171858	0.0022805477492511272	47.3977508	8.5456073	488.1500244140625
2022-04-07 05:28:02	90.14	0.002533938968554139	0.0006802961579523981	47.3977508	8.5456073	488.1500244140625
2022-04-07 05:28:03	90.15	7.952668238431215e-05	0.0038359102327376604	47.3977508	8.5456073	488.15301513671875
2022-04-07 05:28:04	90.15	0.00038989484892226756	0.002558839740231633	47.3977508	8.5456073	488.155029296875
2022-04-07 05:28:04	90.15	-0.00014460005331784487	0.00014891813043504953	47.3977508	8.5456073	488.1570129394531
2022-04-07 05:28:05	90.15	-5.305744707584381e-06	-0.0005372834275476635	47.3977508	8.5456073	488.1570129394531
2022-04-07 05:28:06	90.16	-0.0005963894072920084	0.002686890307813883	47.3977509	8.5456073	488.15802001953125
2022-04-07 05:28:07	90.16	0.0017462781397625804	0.002498599933460355	47.3977509	8.5456073	488.15802001953125
2022-04-07 05:28:07	90.16	-0.002031806856393814	-0.0027891285717487335	47.3977509	8.5456073	488.1590270996094
2022-04-07 05:28:08	90.16	-0.002305980771780014	-0.0006297680665738881	47.3977509	8.5456073	488.1610107421875
2022-04-07 05:28:09	90.16	0.0007875872543081641	0.00041210296330973506	47.3977509	8.5456073	488.16302490234375
2022-04-07 05:28:10	90.16	-0.0013976915506646037	0.0031089407857507467	47.3977509	8.5456073	488.16302490234375
2022-04-07 05:28:10	90.16	0.0018141341861337423	0.0005261441692709923	47.3977509	8.5456073	488.1640319824219
2022-04-07 05:28:11	90.16	-0.0007841561455279589	-0.0004503974341787398	47.3977509	8.5456073	488.1650085449219
2022-04-07 05:28:12	90.16	0.00018199451733380556	0.00018032919615507126	47.3977509	8.5456073	488.166015625
2022-04-07 05:28:12	90.16	-0.0001731641823425889	0.00024097325513139367	47.3977509	8.5456073	488.1690368652344
2022-04-07 05:28:13	90.17	0.0009701525559648871	0.002312537282705307	47.3977509	8.5456073	488.1700134277344
2022-04-07 05:28:14	90.17	0.0008580886060371995	0.0012030433863401413	47.3977508	8.5456073	488.1690368652344
2022-04-07 05:28:14	90.17	-0.002054157666862011	-0.0027921716682612896	47.3977508	8.5456073	488.1690368652344
2022-04-07 05:28:15	90.17	0.002730320207774639	-0.0019730045460164547	47.3977508	8.5456073	488.1710205078125
2022-04-07 05:28:16	90.16	0.0006509252125397325	-0.001183625659905374	47.3977508	8.5456073	488.1750183105469
2022-04-07 05:28:17	90.16	-0.00042188429506495595	-0.001100524328649044	47.3977508	8.5456073	488.17901611328125
2022-04-07 05:28:18	90.17	-0.0007980027585290372	-0.0005923724384047091	47.3977508	8.5456073	488.1810302734375
2022-04-07 05:28:18	90.17	0.0013132996391505003	0.0012994917342439294	47.3977508	8.5456073	488.1820373535156
2022-04-07 05:28:19	90.17	-0.0003265952109359205	-5.158974090591073e-05	47.3977508	8.5456073	488.18402099609375
2022-04-07 05:28:20	90.17	-0.0007948281127028167	0.000859911902807653	47.3977508	8.5456072	488.1880187988281
2022-04-07 05:28:20	90.18	0.0006012056255713105	0.000844741181936115	47.3977508	8.5456072	488.1910095214844
2022-04-07 05:28:21	90.19	-0.001637078239582479	0.0005052085034549236	47.3977508	8.5456072	488.1900329589844
2022-04-07 05:28:22	90.19	0.0014911227626726031	0.003045559162274003	47.397750699999996	8.5456072	488.1900329589844
2022-04-07 05:28:22	90.18	0.0007182767149060965	-0.0026002235244959593	47.397750699999996	8.5456072	488.1900329589844
2022-04-07 05:28:23	90.18	0.0018463066080585122	0.0011704782955348492	47.397750699999996	8.5456072	488.1910095214844
2022-04-07 05:28:24	90.18	0.001401520799845457	0.0006499383598566055	47.397750699999996	8.5456072	488.19403076171875
2022-04-07 05:28:24	90.18	-0.0017877524951472878	0.00036105659091845155	47.397750699999996	8.5456072	488.19403076171875
2022-04-07 05:28:25	90.18	0.0006962225306779146	-0.0006785422447137535	47.397750699999996	8.5456072	488.19403076171875
2022-04-07 05:28:26	90.18	0.0007121248636394739	0.00010514585301280022	47.397750699999996	8.5456072	488.19403076171875
2022-04-07 05:28:26	90.18	-0.0007956025656312704	0.0014249361120164394	47.397750699999996	8.5456072	488.1950378417969
2022-04-07 05:28:27	90.19	0.0010960508370772004	-0.0004371523391455412	47.3977508	8.5456072	488.1960144042969
2022-04-07 05:28:27	90.19	0.00042220516479574144	0.0012600175105035305	47.3977508	8.5456072	488.197021484375
2022-04-07 05:28:28	90.19	-0.001835071248933673	-0.0005291893612593412	47.3977508	8.5456072	488.197021484375
2022-04-07 05:28:29	90.2	-4.760234151035547e-05	-0.0011281113838776946	47.397750699999996	8.5456073	488.19403076171875
2022-04-07 05:28:29	90.2	0.0008766001556068659	-0.0014820046490058303	47.397750699999996	8.5456073	488.19403076171875
2022-04-07 05:28:30	90.2	-0.0005524973385035992	-0.0009648469276726246	47.397750699999996	8.5456073	488.1960144042969
2022-04-07 05:28:30	90.2	-0.0033041490241885185	0.0007819493184797466	47.397750699999996	8.5456073	488.1980285644531
2022-04-07 05:28:31	90.21000000000001	-0.00032198341796174645	-0.0003350282786414027	47.397750699999996	8.5456073	488.19403076171875
2022-04-07 05:28:32	90.21000000000001	0.0014936821535229683	0.0003379805129952729	47.397750699999996	8.5456073	488.1930236816406
2022-04-07 05:28:33	90.21000000000001	0.0006192009896039963	-0.002169886138290167	47.397750699999996	8.5456073	488.1930236816406
2022-04-07 05:28:33	90.21000000000001	-0.0011626901105046272	-0.0005449048476293683	47.397750699999996	8.5456073	488.1930236816406
2022-04-07 05:28:34	90.22	0.001479611499235034	0.0015190137783065438	47.397750699999996	8.5456073	488.19403076171875
2022-04-07 05:28:35	90.22	0.0013743386371061206	0.000991128501482308	47.3977508	8.5456073	488.1980285644531
2022-04-07 05:28:35	90.22	0.0018617217428982258	-0.0009385445155203342	47.3977508	8.5456073	488.20001220703125
2022-04-07 05:28:36	90.22	-0.0027442416176199913	0.000494631938636303	47.3977508	8.5456073	488.2020263671875
2022-04-07 05:28:37	90.22	-0.0019229426980018616	-0.00038801715709269047	47.3977508	8.5456073	488.2080383300781
2022-04-07 05:28:37	90.22	-0.0026548486202955246	0.0017209028592333198	47.3977508	8.5456073	488.2120361328125
2022-04-07 05:28:38	90.22	0.0017097988165915012	0.0015609327238053083	47.3977508	8.5456073	488.2110290527344
2022-04-07 05:28:39	90.23	-0.0024143503978848457	0.001978836487978697	47.3977508	8.5456073	488.2110290527344
2022-04-07 05:28:40	90.23	0.00012231437722221017	-0.0008739785989746451	47.3977508	8.5456073	488.2120361328125
2022-04-07 05:28:40	90.23	-0.00010617630323395133	0.00021241436479613185	47.3977508	8.5456073	488.2140197753906
2022-04-07 05:28:41	90.23	0.0002772843581624329	-0.0021343897096812725	47.3977508	8.5456073	488.2140197753906
2022-04-07 05:28:42	90.23	-0.0024182216729968786	0.0009129870450124145	47.3977508	8.5456073	488.21502685546875
2022-04-07 05:28:43	90.24	0.00015357130905613303	0.00035003581433556974	47.3977508	8.5456073	488.2170104980469
2022-04-07 05:28:43	90.24	-0.000146230508107692	0.0005374801112338901	47.3977508	8.5456072	488.22003173828125
2022-04-07 05:28:44	90.24	-0.00032121239928528666	0.0012443156447261572	47.3977508	8.5456072	488.22003173828125
2022-04-07 05:28:45	90.25	-9.088398655876517e-05	0.00038002259680069983	47.3977508	8.5456073	488.22100830078125
2022-04-07 05:28:46	90.25	-0.0017227439675480127	-0.0013473739381879568	47.3977508	8.5456073	488.2220153808594
2022-04-07 05:28:46	90.25	-0.0010007279925048351	0.00025970570277422667	47.3977508	8.5456072	488.2240295410156
2022-04-07 05:28:47	90.25	0.0001641015405766666	0.0011866044951602817	47.3977508	8.5456072	488.22503662109375
2022-04-07 05:28:48	90.24	0.0005726163508370519	0.00015209487173706293	47.3977508	8.5456072	488.22601318359375
2022-04-07 05:28:48	90.24	0.0006713457405567169	0.0004228978941682726	47.3977508	8.5456073	488.22503662109375
2022-04-07 05:28:49	90.25	-0.0006304829148575664	0.0011357625480741262	47.3977508	8.5456073	488.22503662109375
2022-04-07 05:28:50	90.25	-0.0002610271330922842	-0.0017984642181545496	47.3977508	8.5456073	488.22503662109375
2022-04-07 05:28:50	90.25	-0.0013001718325540423	-0.00011011399328708649	47.3977508	8.5456073	488.22503662109375
2022-04-07 05:28:51	90.25	-0.0036939578130841255	-0.00109802873339504	47.3977508	8.5456073	488.22601318359375
2022-04-07 05:28:52	90.25	-0.0008652610122226179	-8.681212784722447e-05	47.3977508	8.5456073	488.2240295410156
2022-04-07 05:28:52	90.25	-0.0024833334609866142	-0.0003250035224482417	47.3977508	8.5456073	488.2230224609375
2022-04-07 05:28:53	90.25	0.001346007687970996	0.000396659888792783	47.3977508	8.5456073	488.2220153808594
2022-04-07 05:28:54	90.26	-0.0019266342278569937	-0.00046436814591288567	47.3977508	8.5456073	488.2230224609375
2022-04-07 05:28:55	90.27	-0.0015105351340025663	-0.0001860661432147026	47.3977508	8.5456073	488.2230224609375
2022-04-07 05:28:56	90.27	-0.00018575933063402772	-0.0007465535309165716	47.3977508	8.5456073	488.2230224609375
2022-04-07 05:28:56	90.27	0.00027698156191036105	0.0005295096198096871	47.3977508	8.5456072	488.2230224609375
2022-04-07 05:28:57	90.27	-0.0026868346612900496	0.00044951747986488044	47.3977508	8.5456072	488.2240295410156
2022-04-07 05:28:58	90.28	0.0016622100956737995	-0.001992918085306883	47.3977508	8.5456072	488.22503662109375
2022-04-07 05:28:59	90.28	-0.002844954840838909	-0.0008652847027406096	47.3977508	8.5456072	488.22601318359375
2022-04-07 05:29:00	90.28	0.0010711357463151217	-0.0007567862048745155	47.3977508	8.5456072	488.22601318359375
2022-04-07 05:29:00	90.28	-0.0006519706803373992	-0.0013661178527399898	47.3977508	8.5456072	488.22503662109375
2022-04-07 05:29:01	90.28	-0.0006057421560399234	0.0007085291435942054	47.3977508	8.5456072	488.22503662109375
2022-04-07 05:29:02	90.28	0.0002954684314318001	-0.0005810008151456714	47.3977508	8.5456072	488.22601318359375
2022-04-07 05:29:03	90.29	0.0004173385677859187	-0.0005960461567156017	47.3977508	8.5456072	488.2230224609375
2022-04-07 05:29:03	90.29	0.00015878945123404264	-0.0015830269549041986	47.3977508	8.5456072	488.22003173828125
2022-04-07 05:29:04	90.29	-0.004015575163066387	-0.0017013789620250463	47.3977508	8.5456072	488.218017578125
2022-04-07 05:29:05	90.29	0.0020487280562520027	-0.0011544250883162022	47.3977508	8.5456072	488.2170104980469
2022-04-07 05:29:06	90.3	0.0015575967263430357	1.937465276569128e-05	47.3977508	8.5456072	488.2160339355469
2022-04-07 05:29:06	90.3	-0.0015237178886309266	-0.0011807256378233433	47.3977508	8.5456072	488.2130126953125
2022-04-07 05:29:07	90.3	0.0012043610913679004	-0.001532066147774458	47.3977509	8.5456072	488.2110290527344
2022-04-07 05:29:07	90.3	0.002978370990604162	-5.557783879339695e-05	47.3977509	8.5456072	488.2090148925781
2022-04-07 05:29:08	90.3	-0.002088568639010191	0.0007619915995746851	47.3977509	8.5456072	488.2090148925781
2022-04-07 05:29:09	90.31	-0.0005994213279336691	-0.0011129354825243354	47.3977509	8.5456072	488.2080383300781
2022-04-07 05:29:10	90.31	-0.0006980267353355885	0.0007812537369318306	47.3977509	8.5456072	488.2090148925781
2022-04-07 05:29:11	90.31	-0.0012405546149238944	0.0008828934514895082	47.3977509	8.5456072	488.20703125
2022-04-07 05:29:11	90.31	-0.0010235023219138384	-0.0007235716329887509	47.3977509	8.5456072	488.2060241699219
2022-04-07 05:29:12	90.31	-0.0006818585097789764	-0.0006455043330788612	47.3977509	8.5456072	488.20501708984375
2022-04-07 05:29:12	90.31	-0.000838601728901267	-0.00236113159917295	47.3977509	8.5456072	488.20501708984375
2022-04-07 05:29:13	90.31	-0.0014503718120977283	-0.0005483120330609381	47.397751	8.5456072	488.2060241699219
2022-04-07 05:29:14	90.31	-0.0005616338457912207	0.0029297538567334414	47.397751	8.5456072	488.2030334472656
2022-04-07 05:29:14	90.32000000000001	0.0009835257660597563	-0.0002744398661889136	47.397751	8.5456072	488.2020263671875
2022-04-07 05:29:15	90.32000000000001	0.0012041617883369327	-0.0005345779354684055	47.397751	8.5456072	488.2010192871094
2022-04-07 05:29:15	90.32000000000001	0.0024686120450496674	-0.0010603698901832104	47.397751	8.5456072	488.2020263671875
2022-04-07 05:29:16	90.33	0.0006802972638979554	-0.0003611376159824431	47.397751	8.5456072	488.2030334472656
2022-04-07 05:29:17	90.33	-0.0007805237546563148	-0.00105053442530334	47.397751	8.5456072	488.2020263671875
2022-04-07 05:29:18	90.33	-0.0012964237248525023	-0.0006511039682663977	47.397751	8.5456072	488.2010192871094
2022-04-07 05:29:18	90.33	-0.0024428009055554867	0.0005313621368259192	47.397751	8.5456072	488.20001220703125
2022-04-07 05:29:19	90.33	0.0010641678236424923	-0.0005313311121426523	47.397751	8.5456072	488.2010192871094
2022-04-07 05:29:20	90.32000000000001	-0.00045465334551408887	-5.522160790860653e-06	47.397751	8.5456072	488.19903564453125
2022-04-07 05:29:20	90.32000000000001	-0.002167385770007968	0.0011170709040015936	47.397751	8.5456072	488.1980285644531
2022-04-07 05:29:21	90.32000000000001	-0.00028742378344759345	0.0006215660832822323	47.397751	8.5456072	488.19903564453125
2022-04-07 05:29:22	90.32000000000001	0.0024756845086812973	0.0006837219698354602	47.397751	8.5456072	488.19903564453125
2022-04-07 05:29:22	90.32000000000001	0.000790479127317667	0.0021139015443623066	47.397751	8.5456072	488.19903564453125
2022-04-07 05:29:23	90.32000000000001	-0.00030056951800361276	-0.0017190679209306836	47.397751	8.5456073	488.19903564453125
2022-04-07 05:29:24	90.33	0.00029998220270499587	-0.001393956714309752	47.397751	8.5456073	488.2010192871094
2022-04-07 05:29:24	90.33	0.0010659926338121295	-0.0004408167442306876	47.397751	8.5456073	488.2020263671875
2022-04-07 05:29:25	90.34	0.0009850917849689722	-0.0010015829466283321	47.397751	8.5456073	488.2020263671875
2022-04-07 05:29:26	90.34	-0.0016378693981096148	0.0010626191506162286	47.397751	8.5456073	488.2010192871094
2022-04-07 05:29:27	90.35000000000001	-0.0022612116299569607	-0.0009821407729759812	47.397751	8.5456073	488.2010192871094
2022-04-07 05:29:27	90.35000000000001	-0.0019115604227408767	-0.0018659776542335749	47.397751	8.5456073	488.2010192871094
2022-04-07 05:29:28	90.35000000000001	-0.001964116469025612	-0.00017621228471398354	47.397751	8.5456073	488.2020263671875
2022-04-07 05:29:29	90.35000000000001	0.0006323112174868584	-0.0003129001706838608	47.397751	8.5456073	488.2020263671875
2022-04-07 05:29:30	90.35000000000001	0.0003182117361575365	-0.002269639167934656	47.397751	8.5456073	488.2020263671875
2022-04-07 05:29:30	90.35000000000001	-0.003029104322195053	0.002306518144905567	47.397751	8.5456073	488.2010192871094
2022-04-07 05:29:31	90.35000000000001	0.0001580280950292945	-0.0006625184323638678	47.397751	8.5456072	488.2010192871094
2022-04-07 05:29:32	90.35000000000001	-0.0013640179531648755	-0.00019270996563136578	47.397751	8.5456072	488.2020263671875
2022-04-07 05:29:32	90.36	0.0007024089572951198	0.002014053985476494	47.397751	8.5456072	488.2020263671875
2022-04-07 05:29:33	90.36	-0.0014629390789195895	-0.0006250545848160982	47.397751	8.5456072	488.2020263671875
2022-04-07 05:29:34	90.36	0.0019243246642872691	-0.002059681573882699	47.397751	8.5456072	488.2020263671875
2022-04-07 05:29:35	90.36	-3.922893665730953e-05	-0.000591327203437686	47.397751	8.5456072	488.2040100097656
2022-04-07 05:29:36	90.36	0.0001983983675017953	0.0004377263830974698	47.397751	8.5456072	488.2040100097656
2022-04-07 05:29:36	90.36	9.895151015371084e-05	0.0012375288642942905	47.397751	8.5456072	488.20501708984375
2022-04-07 05:29:37	90.37	-0.0007233992218971252	-0.001043519121594727	47.397751	8.5456073	488.2040100097656
2022-04-07 05:29:37	90.38	-0.0006185448728501797	0.00015043449820950627	47.3977511	8.5456074	488.2030334472656
2022-04-07 05:29:38	90.38	-0.0014567648759111762	0.0011555979726836085	47.3977511	8.5456074	488.2010192871094
2022-04-07 05:29:38	90.38	-0.00135054683778435	-0.0027292859740555286	47.3977511	8.5456074	488.2010192871094
2022-04-07 05:29:39	90.39	-0.0009381830459460616	-0.0012379309628158808	47.3977511	8.5456074	488.2040100097656
2022-04-07 05:29:39	90.4	0.0021685552783310413	-0.0017536256927996874	47.397751	8.5456075	488.2090148925781
2022-04-07 05:29:40	90.42	0.0005701358895748854	-0.002687449799850583	47.3977509	8.5456074	488.2060241699219
2022-04-07 05:29:40	90.43	-0.0006013353122398257	-0.0011038461234420538	47.397751	8.5456073	488.1960144042969
2022-04-07 05:29:41	90.44	-0.0021765942219644785	-0.0002775920438580215	47.397751	8.5456074	488.1900329589844
2022-04-07 05:29:42	90.44	-4.4543296098709106e-05	0.0005248704692348838	47.397751	8.5456074	488.1820373535156
2022-04-07 05:29:42	90.44	0.0001927679404616356	0.0016227583400905132	47.397751	8.5456075	488.1800231933594
2022-04-07 05:29:43	90.45	-0.0007763338508084416	-0.003938701935112476	47.397751	8.5456075	488.1770324707031
2022-04-07 05:29:43	90.47	-0.0015080154407769442	-0.0014883624389767647	47.397751	8.5456074	488.1570129394531
2022-04-07 05:29:44	90.47	0.002584079746156931	-0.00010096869664266706	47.3977509	8.5456074	488.1460266113281
2022-04-07 05:29:44	90.48	-0.0012534194393083453	0.00028838199796155095	47.3977509	8.5456073	488.1400146484375
2022-04-07 05:29:45	90.48	0.0014934460632503033	-0.0008297357126139104	47.3977509	8.5456073	488.13201904296875
2022-04-07 05:29:45	90.47	0.0001775204436853528	0.0004289264034014195	47.3977509	8.5456073	488.1250305175781
2022-04-07 05:29:46	90.47	-0.001558543648570776	0.0009772767079994082	47.3977509	8.5456073	488.1190185546875
2022-04-07 05:29:46	90.48	0.0005063613643869758	0.0019729803316295147	47.3977509	8.5456073	488.1170349121094
2022-04-07 05:29:47	90.51	0.000288386014290154	-5.563913146033883e-05	47.3977509	8.5456072	488.1120300292969
2022-04-07 05:29:47	90.5	-0.00060148851480335	-8.158187847584486e-05	47.3977509	8.5456072	488.1020202636719
2022-04-07 05:29:48	90.5	0.0013426310615614057	-0.0011902577243745327	47.3977509	8.5456071	488.1020202636719
2022-04-07 05:29:48	90.51	-0.0002961399732157588	-0.0008015419007278979	47.3977509	8.5456071	488.10003662109375
2022-04-07 05:29:49	90.51	-0.0011122201103717089	0.002334133954718709	47.3977508	8.5456071	488.0940246582031
2022-04-07 05:29:49	90.52	-0.00013281067367643118	-0.0005929638282395899	47.3977508	8.5456072	488.0910339355469
2022-04-07 05:29:50	90.52	0.000433459528721869	-0.000822201487608254	47.3977509	8.5456073	488.0830383300781
2022-04-07 05:29:50	90.53	-0.0016627267468720675	0.0017958575626835227	47.3977509	8.5456072	488.08502197265625
2022-04-07 05:29:51	90.53	-0.00325142964720726	0.0012018699198961258	47.3977509	8.5456072	488.09002685546875
2022-04-07 05:29:51	90.54	-0.00019806926138699055	-0.0012029539793729782	47.3977509	8.5456072	488.0940246582031
2022-04-07 05:29:52	90.54	-0.0007216238882392645	-7.579987868666649e-05	47.3977509	8.5456073	488.1070251464844
2022-04-07 05:29:52	90.55	8.094159420579672e-05	0.00042348922579549253	47.3977509	8.5456074	488.1170349121094
2022-04-07 05:29:53	90.57000000000001	-0.0011949161998927593	0.00020406651310622692	47.3977509	8.5456074	488.13201904296875
2022-04-07 05:29:54	90.57000000000001	-0.002817451488226652	0.0011831424199044704	47.3977509	8.5456074	488.13702392578125
2022-04-07 05:29:54	90.58	-0.00043619866482913494	0.0024028904736042023	47.3977509	8.5456074	488.1410217285156
2022-04-07 05:29:55	90.56	0.005965282674878836	0.0011568847112357616	47.3977509	8.5456075	488.1490173339844
2022-04-07 05:29:55	90.57000000000001	0.0005058243405073881	0.0018995481077581644	47.3977509	8.5456075	488.1460266113281
2022-04-07 05:29:56	90.58	-0.001216313918121159	-0.0015255409525707364	47.3977509	8.5456075	488.1460266113281
2022-04-07 05:29:56	90.60000000000001	0.000984026351943612	0.00032390159321948886	47.3977508	8.5456075	488.15802001953125
2022-04-07 05:29:57	90.59	0.0009448747150599957	0.0016369025688618422	47.3977508	8.5456075	488.1700134277344
2022-04-07 05:29:57	90.59	0.0003637258196249604	0.0003166942624375224	47.3977508	8.5456075	488.17401123046875
2022-04-07 05:29:58	90.58	0.0005037138471379876	-0.001065652584657073	47.3977508	8.5456075	488.1780090332031
2022-04-07 05:29:58	90.57000000000001	-0.0011282635387033224	0.002794963773339987	47.397750699999996	8.5456076	488.1830139160156
2022-04-07 05:29:59	90.57000000000001	-0.00401950441300869	-0.0025199567899107933	47.397750699999996	8.545607799999999	488.1850280761719
2022-04-07 05:29:59	90.56	-0.0007882232312113047	0.0027580077294260263	47.397750699999996	8.5456077	488.197021484375
2022-04-07 05:30:00	90.56	-0.0007189699681475759	-0.003964317496865988	47.397750599999995	8.5456077	488.2040100097656
2022-04-07 05:30:00	90.54	-0.001666948082856834	4.956324119120836e-05	47.397750699999996	8.5456077	488.2140197753906
2022-04-07 05:30:01	90.53	0.0009700229857116938	0.000140584132168442	47.397750699999996	8.5456077	488.2220153808594
2022-04-07 05:30:01	90.53	-7.290055509656668e-05	-0.0006127421511337161	47.397750699999996	8.5456077	488.2290344238281
2022-04-07 05:30:02	90.52	0.0016403872286900878	-0.00022814108524471521	47.397750599999995	8.5456077	488.23602294921875
2022-04-07 05:30:02	90.5	-0.00013732712250202894	-0.0014252520631998777	47.397750599999995	8.5456076	488.2450256347656
2022-04-07 05:30:03	90.49	0.0006443505408242345	-0.00106647121720016	47.397750599999995	8.5456076	488.2490234375
2022-04-07 05:30:03	90.48	0.0008370466530323029	0.003941240720450878	47.397750599999995	8.5456076	488.2550354003906
2022-04-07 05:30:04	90.47	-0.0025789798237383366	-0.0009996858425438404	47.397750599999995	8.5456075	488.2500305175781
2022-04-07 05:30:05	90.46000000000001	0.000373342540115118	-0.0021517262794077396	47.397750599999995	8.5456075	488.2370300292969
2022-04-07 05:30:05	90.45	0.0014951264020055532	-0.00019895611330866814	47.397750599999995	8.5456075	488.2430114746094
2022-04-07 05:30:06	90.43	0.0016749560600146651	-0.0041755144484341145	47.3977505	8.5456075	488.2440185546875
2022-04-07 05:30:06	90.43	0.0018691729055717587	0.0010325497714802623	47.3977505	8.5456075	488.2350158691406
2022-04-07 05:30:07	90.41	-0.0007880919147282839	0.0010985811240971088	47.397750599999995	8.5456074	488.2350158691406
2022-04-07 05:30:07	90.4	0.000754409353248775	0.00096806202782318	47.397750599999995	8.5456073	488.238037109375
2022-04-07 05:30:08	90.38	-0.0006697080098092556	-0.0013320359867066145	47.397750599999995	8.5456072	488.2370300292969
2022-04-07 05:30:08	90.36	-0.001805426785722375	-0.0008550439379177988	47.3977505	8.5456072	488.23602294921875
2022-04-07 05:30:09	90.35000000000001	0.0007900414057075977	0.0009763460257090628	47.3977505	8.5456072	488.238037109375
2022-04-07 05:30:09	90.34	-0.0018275927286595106	0.0003627325058914721	47.3977505	8.5456072	488.2420349121094
2022-04-07 05:30:10	90.33	0.002173829823732376	0.0011938423849642277	47.397750599999995	8.5456072	488.2420349121094
2022-04-07 05:30:10	90.34	0.00020133168436586857	0.001378359505906701	47.397750599999995	8.5456072	488.24102783203125
2022-04-07 05:30:11	90.34	0.00026170164346694946	-0.0008585993782617152	47.397750599999995	8.5456072	488.23101806640625
2022-04-07 05:30:11	90.33	-0.0008857180364429951	0.001130435150116682	47.3977505	8.5456073	488.2340087890625
2022-04-07 05:30:12	90.32000000000001	0.0008858179207891226	-0.0011918789241462946	47.3977505	8.5456073	488.238037109375
2022-04-07 05:30:12	90.31	-0.0009071533568203449	0.0024580955505371094	47.3977504	8.5456073	488.24102783203125
2022-04-07 05:30:13	90.29	-0.001426596543751657	0.0018397560343146324	47.3977505	8.5456074	488.24603271484375
2022-04-07 05:30:13	90.27	-0.00011236185673624277	-0.003889115760102868	47.3977505	8.5456073	488.26202392578125
2022-04-07 05:30:14	90.26	0.0007028577383607626	0.0011995017994195223	47.3977505	8.5456073	488.2750244140625
2022-04-07 05:30:14	90.24	0.003169019939377904	0.0002592845121398568	47.3977505	8.5456073	488.280029296875
2022-04-07 05:30:15	90.24	-0.00015892530791461468	0.0007099236245267093	47.3977505	8.5456073	488.2820129394531
2022-04-07 05:30:15	90.22	0.0009125360520556569	-0.0014080754481256008	47.397750599999995	8.5456072	488.2940368652344
2022-04-07 05:30:16	90.19	-2.0123785361647606e-05	0.00010629970347508788	47.3977505	8.5456071	488.2850341796875
2022-04-07 05:30:17	90.18	0.0005405351985245943	0.002647039480507374	47.397750599999995	8.5456071	488.2820129394531
2022-04-07 05:30:17	90.16	-0.0012189345434308052	-0.0005066068843007088	47.397750599999995	8.5456071	488.2890319824219
2022-04-07 05:30:18	90.14	0.0006336377700790763	0.001586979953572154	47.397750599999995	8.5456071	488.27801513671875
2022-04-07 05:30:18	90.12	0.0023986222222447395	-0.0032743876799941063	47.397750599999995	8.5456071	488.26202392578125
2022-04-07 05:30:19	90.12	0.002831684425473213	-0.002022535540163517	47.397750599999995	8.5456071	488.259033203125
2022-04-07 05:30:19	90.11	0.0012283874675631523	-0.001134622609242797	47.3977505	8.5456071	488.25701904296875
2022-04-07 05:30:20	90.09	0.001249689725227654	0.00046105124056339264	47.3977505	8.5456072	488.2550354003906
2022-04-07 05:30:20	90.10000000000001	0.0005759085761383176	0.00047297857236117125	47.3977505	8.5456071	488.2370300292969
2022-04-07 05:30:21	90.10000000000001	-0.00020590145140886307	0.0006342454580590129	47.3977505	8.5456071	488.22503662109375
2022-04-07 05:30:21	90.09	0.0018035051180049777	-0.0008164491737261415	47.397750599999995	8.5456071	488.2190246582031
2022-04-07 05:30:22	90.08	0.0013533646706491709	-0.001030953717418015	47.397750599999995	8.5456071	488.2120361328125
2022-04-07 05:30:22	90.06	0.0002991979708895087	0.0005038305534981191	47.3977505	8.5456072	488.20001220703125
2022-04-07 05:30:23	90.04	0.001884538447484374	-0.0006504713091999292	47.3977505	8.5456073	488.18402099609375
2022-04-07 05:30:23	90.03	0.00037331099156290293	0.000559738022275269	47.3977505	8.5456073	488.17901611328125
2022-04-07 05:30:24	90.03	0.00010185380233451724	-2.406712155789137e-05	47.3977505	8.5456073	488.1700134277344
2022-04-07 05:30:24	90.01	0.00038012530421838164	-0.0016324787866324186	47.3977503	8.5456072	488.1540222167969
2022-04-07 05:30:25	90.0	-0.002985225524753332	0.0010261212009936571	47.3977503	8.5456072	488.134033203125
2022-04-07 05:30:25	89.99	-2.5333138182759285e-05	0.00036925124004483223	47.3977503	8.5456072	488.1050109863281
2022-04-07 05:30:26	89.98	0.0013027405366301537	-0.0009419816778972745	47.3977502	8.5456071	488.07501220703125
2022-04-07 05:30:26	89.96000000000001	0.0019522206857800484	0.002345482585951686	47.3977502	8.5456071	488.06201171875
2022-04-07 05:30:27	89.97	0.00033344715484417975	0.00039281128556467593	47.3977503	8.5456071	488.04901123046875
2022-04-07 05:30:27	89.97	0.0007427706732414663	0.0006761110853403807	47.3977502	8.5456071	488.0350341796875
2022-04-07 05:30:28	89.96000000000001	0.0010780843440443277	-0.0005052255000919104	47.3977502	8.5456071	488.02301025390625
2022-04-07 05:30:29	89.96000000000001	0.002572587225586176	0.0027053188532590866	47.3977503	8.5456071	488.0260314941406
2022-04-07 05:30:29	89.94	-0.0008763380465097725	0.0015411530621349812	47.3977504	8.5456071	488.0210266113281
2022-04-07 05:30:30	89.94	-0.0012186324456706643	-0.0009906238410621881	47.3977504	8.5456071	488.0210266113281
2022-04-07 05:30:30	89.92	0.001977241598069668	-0.001842272700741887	47.3977505	8.5456071	488.02203369140625
2022-04-07 05:30:31	89.92	8.733337745070457e-05	0.0022999090142548084	47.3977505	8.5456072	488.02001953125
2022-04-07 05:30:31	89.92	-2.1574203856289387e-05	-0.001797595527023077	47.3977505	8.5456072	488.0110168457031
2022-04-07 05:30:32	89.92	-0.0013025557855144143	-0.0004121350357308984	47.3977505	8.5456072	488.0130310058594
2022-04-07 05:30:32	89.93	-0.00026840309146791697	0.000649364897981286	47.3977505	8.5456072	488.0140380859375
2022-04-07 05:30:33	89.94	-0.0012167887762188911	-0.00016157422214746475	47.3977505	8.5456073	488.01202392578125
2022-04-07 05:30:33	89.93	3.123725764453411e-05	0.00016100058564916253	47.3977505	8.5456073	488.0080261230469
2022-04-07 05:30:34	89.92	0.0026294682174921036	0.0023680159356445074	47.3977505	8.5456075	488.0060119628906
2022-04-07 05:30:34	89.92	0.0013545523397624493	-4.115537740290165e-05	47.3977505	8.5456076	488.0060119628906
2022-04-07 05:30:35	89.9	0.0013067504623904824	0.001913317944854498	47.397750599999995	8.5456077	488.0060119628906
2022-04-07 05:30:35	89.91	0.0003969815734308213	0.00043838954297825694	47.397750599999995	8.5456075	488.0190124511719
2022-04-07 05:30:36	89.9	0.00012252101441845298	-0.00011652318062260747	47.397750699999996	8.5456075	488.0140380859375
2022-04-07 05:30:36	89.89	-0.001257098512724042	-0.002588375937193632	47.397750699999996	8.5456076	488.0110168457031
2022-04-07 05:30:37	89.88	0.0011213327525183558	-0.0028138565830886364	47.397750699999996	8.5456075	488.0140380859375
2022-04-07 05:30:38	89.88	0.0006343598943203688	-8.816353511065245e-05	47.397750699999996	8.5456074	488.0180358886719
2022-04-07 05:30:38	89.88	0.00011324364459142089	0.0004746719205286354	47.3977508	8.5456074	488.0180358886719
2022-04-07 05:30:39	89.88	-0.00043771363561972976	0.00204498041421175	47.3977508	8.5456074	488.01702880859375
2022-04-07 05:30:39	89.88	0.0007490860298275948	-0.0009664853569120169	47.3977508	8.5456075	488.01702880859375
2022-04-07 05:30:40	89.87	0.0005420253146439791	-0.0012517630821093917	47.3977508	8.5456075	488.0180358886719
2022-04-07 05:30:41	89.87	-0.0008890525787137449	-0.0004118356155231595	47.3977508	8.5456075	488.0180358886719
2022-04-07 05:30:42	89.87	-0.0014410826843231916	-0.0003059235168620944	47.3977508	8.5456076	488.0210266113281
2022-04-07 05:30:43	89.88	-0.0008388629648834467	0.00174595951102674	47.3977508	8.5456076	488.0210266113281
2022-04-07 05:30:44	89.88	-0.0013510464923456311	-0.0005650641396641731	47.3977508	8.5456076	488.02203369140625
2022-04-07 05:30:45	89.88	-0.00026610144414007664	0.0018568233354017138	47.3977508	8.5456076	488.02301025390625
2022-04-07 05:30:46	89.88	0.0022639138624072075	-0.0027026969473809004	47.3977508	8.5456076	488.0250244140625
2022-04-07 05:30:48	89.88	-0.00015859620179980993	0.0006763041019439697	47.3977508	8.5456076	488.0250244140625
2022-04-07 05:30:49	89.88	0.0013930308632552624	-0.0011454964987933636	47.3977508	8.5456075	488.0250244140625
2022-04-07 05:30:49	89.89	-0.00016365654300898314	-0.0013593216426670551	47.3977508	8.5456075	488.0260314941406
2022-04-07 05:30:50	89.88	-0.0012037531705573201	-0.0017185427714139223	47.3977508	8.5456075	488.0250244140625
2022-04-07 05:30:51	89.87	0.0017581481952220201	0.0006493067485280335	47.3977508	8.5456075	488.0250244140625
2022-04-07 05:30:52	89.88	0.0023923523258417845	0.0004143726546317339	47.3977508	8.5456075	488.0260314941406
2022-04-07 05:30:52	89.88	0.0007094014436006546	0.0025872280821204185	47.3977508	8.5456075	488.0260314941406
2022-04-07 05:30:53	89.88	-0.0013695191591978073	-0.001533485483378172	47.3977508	8.5456075	488.0260314941406
2022-04-07 05:30:53	89.88	0.0009231505100615323	0.001421499066054821	47.3977508	8.5456075	488.0260314941406
2022-04-07 05:30:55	89.87	0.0008770899730734527	-0.003823826089501381	47.3977508	8.5456075	488.02801513671875
2022-04-07 05:30:56	89.88	0.0019392124377191067	0.0004170506726950407	47.3977508	8.5456075	488.030029296875
2022-04-07 05:30:57	89.87	0.003347012447193265	-0.00022320356220006943	47.3977508	8.5456075	488.0320129394531
2022-04-07 05:30:58	89.87	0.002618845086544752	-0.00018189550610259175	47.3977508	8.5456074	488.0390319824219
2022-04-07 05:30:59	89.87	-0.001658338587731123	-0.0013710869243368506	47.397750699999996	8.5456074	488.04302978515625
2022-04-07 05:31:01	89.87	-0.0014424321707338095	-0.00021386006847023964	47.397750699999996	8.5456074	488.0470275878906
2022-04-07 05:31:02	89.87	0.00011808105045929551	-0.0001726549817249179	47.397750699999996	8.5456074	488.04803466796875
2022-04-07 05:31:02	89.87	0.00023769607651047409	-0.001688171993009746	47.397750699999996	8.5456074	488.051025390625
2022-04-07 05:31:05	89.87	0.0011497882660478354	-0.0014104001456871629	47.397750699999996	8.5456074	488.0520324707031
2022-04-07 05:31:05	89.88	-0.0008238063310272992	0.00037897645961493254	47.397750699999996	8.5456074	488.05401611328125
2022-04-07 05:31:06	89.87	0.00033758775680325925	-0.00030927977059036493	47.397750699999996	8.5456074	488.0570373535156
2022-04-07 05:31:08	89.87	0.0006720465607941151	0.00105788535438478	47.397750699999996	8.5456074	488.0580139160156
2022-04-07 05:31:09	89.87	-0.00023234781110659242	-0.0010530325816944242	47.397750699999996	8.5456074	488.0600280761719
2022-04-07 05:31:09	89.87	0.002563762478530407	-0.0005814750329591334	47.397750699999996	8.5456075	488.0630187988281
