Time_POSIX	Heading_deg	Pitch_rad	Roll_rad	Yaw_rad	Lat	Long	Alt_m_AGL
2022-04-07 04:48:49	89.28	0.0010565032716840506	0.0023945369757711887	47.397750599999995	8.545607	488.02001953125
2022-04-07 04:48:49	89.28	0.0016434749122709036	0.001999524887651205	47.3977505	8.545607	488.0180358886719
2022-04-07 04:48:50	89.26	0.00013689114712178707	-0.0012779678218066692	47.397750599999995	8.5456071	488.0160217285156
2022-04-07 04:48:51	89.23	0.00039382651448249817	0.0016315914690494537	47.397750599999995	8.5456072	488.0110168457031
2022-04-07 04:48:51	89.23	0.0005765408277511597	0.00011287163943052292	47.397750699999996	8.5456072	488.0050354003906
2022-04-07 04:48:52	89.22	0.0004156914073973894	0.00011812848970293999	47.397750599999995	8.5456072	488.0130310058594
2022-04-07 04:48:52	89.22	6.741378456354141e-05	-0.0007917433977127075	47.397750599999995	8.5456072	488.0140380859375
2022-04-07 04:48:53	89.21000000000001	-0.0015247019473463297	0.002361463848501444	47.397750599999995	8.5456072	488.01202392578125
2022-04-07 04:48:53	89.2	-0.0011051329784095287	-0.0012844889424741268	47.397750599999995	8.5456072	488.0080261230469
2022-04-07 04:48:54	89.2	0.0011226683855056763	0.0004702485166490078	47.397750599999995	8.5456073	488.0130310058594
2022-04-07 04:48:54	89.2	0.0006999168545007706	0.00012667663395404816	47.3977505	8.5456072	488.0130310058594
2022-04-07 04:48:55	89.2	-0.0013453594874590635	-0.0009187031537294388	47.3977505	8.5456072	488.02001953125
2022-04-07 04:48:55	89.16	-0.0006138533353805542	5.016103386878967e-05	47.397750599999995	8.5456072	488.02203369140625
2022-04-07 04:48:56	89.15	-0.0028407140634953976	-0.00014892127364873886	47.397750599999995	8.5456071	488.02801513671875
2022-04-07 04:48:56	89.14	-0.00012220325879752636	0.001464194618165493	47.397750699999996	8.545607	488.03302001953125
2022-04-07 04:48:57	89.12	0.001095575513318181	0.00045661814510822296	47.397750699999996	8.545607	488.04302978515625
2022-04-07 04:48:57	89.11	0.00023702927865087986	0.002959116827696562	47.397750699999996	8.545607	488.0460205078125
2022-04-07 04:48:58	89.09	-0.00028874981217086315	0.0013221767731010914	47.397750699999996	8.5456069	488.0570373535156
2022-04-07 04:48:58	89.08	-0.0007268404588103294	0.0017994539812207222	47.397750699999996	8.5456069	488.0550231933594
2022-04-07 04:48:59	89.08	-0.00196525058709085	0.0008233105763792992	47.3977508	8.5456069	488.0560302734375
2022-04-07 04:48:59	89.08	-0.003054778790101409	-0.0009037107229232788	47.3977508	8.5456068	488.06402587890625
2022-04-07 04:49:00	89.06	0.001180882565677166	0.0010097399353981018	47.3977508	8.5456067	488.0760192871094
2022-04-07 04:49:00	89.05	-0.0009325672872364521	0.0022365152835845947	47.3977509	8.5456067	488.09503173828125
2022-04-07 04:49:01	89.06	0.0031908578239381313	-0.00015882402658462524	47.3977509	8.5456067	488.114013671875
2022-04-07 04:49:01	89.06	-1.5358440577983856e-05	0.001986550632864237	47.397751	8.5456068	488.1230163574219
2022-04-07 04:49:02	89.06	-0.001393982907757163	-0.001202248502522707	47.3977511	8.5456068	488.1310119628906
2022-04-07 04:49:03	89.06	0.0007847768720239401	0.002160274889320135	47.3977511	8.5456068	488.1360168457031
2022-04-07 04:49:03	89.06	-0.002117326483130455	0.004607451613992453	47.3977511	8.5456068	488.1460266113281
2022-04-07 04:49:04	89.06	-0.002459291834384203	-0.00044349953532218933	47.397751	8.5456068	488.1520080566406
2022-04-07 04:49:04	89.06	-0.0002758933696895838	0.0006210622377693653	47.3977511	8.5456069	488.15301513671875
2022-04-07 04:49:05	89.07000000000001	0.000490264268592	-0.001033796463161707	47.3977511	8.5456069	488.1540222167969
2022-04-07 04:49:05	89.07000000000001	-0.0016008131206035614	0.0009207078255712986	47.3977511	8.5456069	488.1520080566406
2022-04-07 04:49:06	89.07000000000001	0.0017580033745616674	0.0014099613763391972	47.3977511	8.5456068	488.155029296875
2022-04-07 04:49:06	89.07000000000001	-0.00017618201673030853	-0.0018686167895793915	47.3977511	8.5456068	488.1570129394531
2022-04-07 04:49:07	89.07000000000001	0.0009142933413386345	-0.0005969363264739513	47.3977511	8.5456069	488.15802001953125
2022-04-07 04:49:07	89.06	0.002100603422150016	-0.000418985728174448	47.397751199999995	8.5456069	488.16302490234375
2022-04-07 04:49:08	89.06	-0.0014084756840020418	-0.00046725617721676826	47.397751199999995	8.5456069	488.166015625
2022-04-07 04:49:08	89.06	0.0020837923511862755	-0.0003515193238854408	47.397751199999995	8.545607	488.1620178222656
2022-04-07 04:49:09	89.07000000000001	0.0007701902650296688	0.0017734803259372711	47.397751199999995	8.5456069	488.1620178222656
2022-04-07 04:49:09	89.07000000000001	-0.001216862816363573	0.0008802297525107861	47.397751199999995	8.5456069	488.1610107421875
2022-04-07 04:49:10	89.07000000000001	0.004102385602891445	-0.000420921016484499	47.3977511	8.545607	488.1540222167969
2022-04-07 04:49:10	89.08	0.00010418146848678589	-0.001051402185112238	47.3977511	8.5456069	488.1490173339844
2022-04-07 04:49:11	89.08	0.0005287127569317818	-0.001025906763970852	47.397751	8.5456068	488.15802001953125
2022-04-07 04:49:11	89.08	-0.0006780913099646568	0.000312113668769598	47.397751	8.5456068	488.16802978515625
2022-04-07 04:49:12	89.09	-0.0014368889387696981	-0.0009087459184229374	47.397751	8.5456068	488.176025390625
2022-04-07 04:49:12	89.10000000000001	-0.0010895445011556149	0.0006646797992289066	47.3977509	8.5456069	488.1770324707031
2022-04-07 04:49:13	89.10000000000001	-0.0012335770297795534	-0.00025721220299601555	47.3977509	8.545607	488.1750183105469
2022-04-07 04:49:14	89.10000000000001	-0.00024137482978403568	-0.0008328519761562347	47.3977509	8.545607	488.1670227050781
2022-04-07 04:49:14	89.10000000000001	0.0008066000882536173	-0.0012587481178343296	47.3977509	8.5456071	488.15802001953125
2022-04-07 04:49:15	89.09	0.001221663085743785	-0.003914239350706339	47.397751	8.5456072	488.1510314941406
2022-04-07 04:49:15	89.10000000000001	0.0009558142628520727	0.0022853747941553593	47.3977509	8.5456072	488.13201904296875
2022-04-07 04:49:16	89.09	-0.0001515734475106001	0.001280877273529768	47.3977509	8.5456072	488.12200927734375
2022-04-07 04:49:16	89.10000000000001	0.0014463888946920633	0.0002458798699080944	47.3977509	8.5456072	488.1180114746094
2022-04-07 04:49:17	89.08	-0.0017258159350603819	0.0017856955528259277	47.3977508	8.5456072	488.10101318359375
2022-04-07 04:49:17	89.08	-0.0013984073884785175	0.0006453786045312881	47.3977508	8.5456072	488.0890197753906
2022-04-07 04:49:18	89.09	0.00035860086791217327	6.156088784337044e-05	47.397750699999996	8.5456072	488.0910339355469
2022-04-07 04:49:18	89.09	-0.0007413742132484913	1.2834090739488602e-05	47.397750699999996	8.5456073	488.093017578125
2022-04-07 04:49:19	89.09	-0.0008737139869481325	0.0014798869378864765	47.397750699999996	8.5456073	488.09600830078125
2022-04-07 04:49:19	89.08	-0.000994333764538169	-0.0005888096056878567	47.3977508	8.5456074	488.0940246582031
2022-04-07 04:49:20	89.07000000000001	0.0007210024632513523	1.0783318430185318e-05	47.3977508	8.5456074	488.09600830078125
2022-04-07 04:49:20	89.08	0.002308210823684931	-0.0023556710220873356	47.397750699999996	8.5456074	488.0990295410156
2022-04-07 04:49:21	89.08	-0.00040829251520335674	0.0038901190273463726	47.3977508	8.5456074	488.1080322265625
2022-04-07 04:49:21	89.09	0.0005067808087915182	0.0008516102097928524	47.3977508	8.5456074	488.1230163574219
2022-04-07 04:49:22	89.10000000000001	0.004232301376760006	-0.00013794004917144775	47.3977508	8.5456073	488.1280212402344
2022-04-07 04:49:22	89.11	-0.0018606067169457674	0.000943413469940424	47.3977508	8.5456073	488.13201904296875
2022-04-07 04:49:23	89.12	-0.0022254176437854767	-0.0006936569698154926	47.3977509	8.5456073	488.13702392578125
2022-04-07 04:49:23	89.12	0.00039777555502951145	0.0006409212946891785	47.3977508	8.5456073	488.14703369140625
2022-04-07 04:49:24	89.12	-0.00029412214644253254	0.0006154514849185944	47.3977508	8.5456072	488.155029296875
2022-04-07 04:49:24	89.12	0.0009663605596870184	-0.001243544276803732	47.3977509	8.5456072	488.1620178222656
2022-04-07 04:49:25	89.11	0.001181244384497404	-0.0001904573291540146	47.3977509	8.5456072	488.1750183105469
2022-04-07 04:49:26	89.10000000000001	-0.0017703454941511154	-0.0024768104776740074	47.3977508	8.5456073	488.1690368652344
2022-04-07 04:49:26	89.10000000000001	-0.000766777666285634	-0.00032496917992830276	47.3977508	8.5456072	488.1750183105469
2022-04-07 04:49:27	89.10000000000001	-0.0006827602628618479	0.0009558722376823425	47.3977508	8.5456072	488.1700134277344
2022-04-07 04:49:27	89.11	0.0020578813273459673	0.00033968081697821617	47.3977508	8.5456071	488.1700134277344
2022-04-07 04:49:28	89.12	-0.00010281801223754883	-0.0010806182399392128	47.3977508	8.5456071	488.1700134277344
2022-04-07 04:49:28	89.14	-0.0007505533285439014	-0.000157894566655159	47.3977508	8.5456071	488.1690368652344
2022-04-07 04:49:29	89.13	0.003566150786355138	0.0012360368855297565	47.3977508	8.545607	488.1640319824219
2022-04-07 04:49:29	89.14	-0.0010693485382944345	-5.050422623753548e-05	47.3977509	8.5456071	488.1640319824219
2022-04-07 04:49:30	89.14	-0.00039316085167229176	-0.0007583857513964176	47.3977509	8.5456071	488.1610107421875
2022-04-07 04:49:30	89.14	0.001112521393224597	-0.0015653381124138832	47.3977508	8.5456071	488.1650085449219
2022-04-07 04:49:31	89.14	-0.0018292577005922794	-0.000723901204764843	47.3977508	8.5456071	488.16302490234375
2022-04-07 04:49:31	89.14	-0.0015091362874954939	-0.0005753221921622753	47.3977508	8.5456072	488.1610107421875
2022-04-07 04:49:32	89.14	-0.00042006117291748524	0.0014613675884902477	47.3977508	8.5456072	488.14501953125
2022-04-07 04:49:32	89.15	-0.0004796197172254324	-0.0011332770809531212	47.3977508	8.5456071	488.1240234375
2022-04-07 04:49:33	89.15	-0.0026270144153386354	-0.0015157349407672882	47.3977508	8.5456072	488.1090087890625
2022-04-07 04:49:33	89.17	-0.000596135389059782	0.001056860201060772	47.397750699999996	8.5456072	488.0940246582031
2022-04-07 04:49:34	89.19	0.0003193260636180639	-0.0013321391306817532	47.397750699999996	8.5456071	488.08203125
2022-04-07 04:49:34	89.19	-0.002881778869777918	-1.3518612831830978e-05	47.397750699999996	8.5456071	488.0780334472656
2022-04-07 04:49:35	89.19	-0.0021575884893536568	-0.0006877891719341278	47.397750699999996	8.5456071	488.0680236816406
2022-04-07 04:49:35	89.19	0.0007594097405672073	1.5084166079759598e-05	47.397750699999996	8.5456071	488.05902099609375
2022-04-07 04:49:36	89.21000000000001	-0.00011926516890525818	0.0015965732745826244	47.397750699999996	8.5456072	488.051025390625
2022-04-07 04:49:36	89.21000000000001	0.00019106362015008926	-0.0006631221622228622	47.397750699999996	8.5456072	488.0500183105469
2022-04-07 04:49:37	89.21000000000001	0.0015767114236950874	0.00024369405582547188	47.397750699999996	8.5456072	488.04803466796875
2022-04-07 04:49:38	89.22	-0.0019785016775131226	0.0018078642897307873	47.397750699999996	8.5456073	488.0420227050781
2022-04-07 04:49:38	89.24	-0.001251033740118146	0.002379360143095255	47.3977508	8.5456073	488.03302001953125
2022-04-07 04:49:39	89.25	0.0018302390817552805	-0.001300191506743431	47.3977508	8.5456073	488.0270080566406
2022-04-07 04:49:39	89.28	-0.0027439440600574017	0.00014360342174768448	47.3977508	8.5456074	488.03302001953125
2022-04-07 04:49:40	89.27	0.0006763879209756851	-0.00017332937568426132	47.3977508	8.5456074	488.0440368652344
2022-04-07 04:49:40	89.28	0.00012051151134073734	0.003209995571523905	47.3977508	8.5456074	488.0600280761719
2022-04-07 04:49:41	89.29	-0.0023091835901141167	-0.003873563604429364	47.3977508	8.5456075	488.0680236816406
2022-04-07 04:49:41	89.29	0.0022735942620784044	-6.156740710139275e-05	47.3977508	8.5456075	488.0600280761719
2022-04-07 04:49:42	89.27	0.000300985062494874	-0.0004434729926288128	47.3977508	8.5456075	488.0530090332031
2022-04-07 04:49:42	89.26	-0.00035812961868941784	-0.0016603060066699982	47.3977508	8.5456075	488.04803466796875
2022-04-07 04:49:43	89.27	0.0005630115047097206	-0.00048676319420337677	47.3977509	8.5456075	488.0460205078125
2022-04-07 04:49:43	89.28	-0.0008429065346717834	0.0011816569603979588	47.3977509	8.5456075	488.05401611328125
2022-04-07 04:49:44	89.29	0.000822186004370451	0.0009416365064680576	47.3977509	8.5456075	488.0560302734375
2022-04-07 04:49:44	89.29	-0.0016066606622189283	0.00017731403931975365	47.397751	8.5456074	488.051025390625
2022-04-07 04:49:45	89.28	-0.0006117362063378096	-0.00028893444687128067	47.397751	8.5456073	488.0520324707031
2022-04-07 04:49:45	89.28	-0.0004923942033201456	0.0037231766618788242	47.397751	8.5456073	488.0450134277344
2022-04-07 04:49:46	89.28	0.0004731202498078346	0.0002880282700061798	47.3977511	8.5456073	488.0450134277344
2022-04-07 04:49:46	89.27	-0.0004515701439231634	0.00017604650929570198	47.3977511	8.5456073	488.0500183105469
2022-04-07 04:49:47	89.25	0.00010056258179247379	0.0005048448219895363	47.397751	8.5456072	488.0580139160156
2022-04-07 04:49:47	89.25	0.0027243609074503183	-0.0006932676769793034	47.397751	8.5456071	488.06201171875
2022-04-07 04:49:48	89.25	0.0022934391163289547	-0.0034843150060623884	47.397751	8.5456071	488.0770263671875
2022-04-07 04:49:48	89.23	-0.0007298162672668695	-0.00027421116828918457	47.3977511	8.5456071	488.0780334472656
2022-04-07 04:49:49	89.24	0.0013383440673351288	-0.0017280904576182365	47.3977511	8.5456071	488.072021484375
2022-04-07 04:49:50	89.25	0.0037852972745895386	0.0003613200969994068	47.3977511	8.545607	488.0660095214844
2022-04-07 04:49:50	89.26	0.006300000473856926	0.000880200881510973	47.3977511	8.5456071	488.0700378417969
2022-04-07 04:49:51	89.26	-0.001416568411514163	-0.0006860867142677307	47.397751	8.5456071	488.0700378417969
2022-04-07 04:49:51	89.25	0.0017239553853869438	0.0020441492088139057	47.397751	8.545607	488.0810241699219
2022-04-07 04:49:52	89.24	-0.001269160769879818	0.003296034876257181	47.397751	8.5456072	488.0890197753906
2022-04-07 04:49:52	89.23	-0.0019867336377501488	-0.00021697068586945534	47.3977509	8.5456073	488.09503173828125
2022-04-07 04:49:53	89.23	0.003287652973085642	-0.0001765824854373932	47.3977509	8.5456074	488.10302734375
2022-04-07 04:49:53	89.23	-0.001880098832771182	-5.185883492231369e-05	47.3977509	8.5456074	488.1040344238281
2022-04-07 04:49:54	89.23	-0.0007058759219944477	0.00045070843771100044	47.3977509	8.5456073	488.1020202636719
2022-04-07 04:49:54	89.22	-0.0005407126154750586	0.0007592951878905296	47.3977509	8.5456073	488.09503173828125
2022-04-07 04:49:55	89.22	-0.0016186847351491451	-0.0005504959262907505	47.3977508	8.5456073	488.08502197265625
2022-04-07 04:49:55	89.21000000000001	0.0026771363336592913	0.0004226989112794399	47.3977508	8.5456074	488.0830383300781
2022-04-07 04:49:56	89.2	0.00045384024269878864	-0.0009966655634343624	47.3977508	8.5456074	488.0860290527344
2022-04-07 04:49:56	89.2	0.0016537322662770748	0.00133440550416708	47.397750699999996	8.5456073	488.0880126953125
2022-04-07 04:49:57	89.19	0.00020340969786047935	-0.0021883160807192326	47.397750599999995	8.5456073	488.0830383300781
2022-04-07 04:49:57	89.19	0.002867638599127531	3.655441105365753e-07	47.397750599999995	8.5456073	488.09002685546875
2022-04-07 04:49:58	89.19	0.00049552321434021	0.0010579689405858517	47.397750599999995	8.5456074	488.093017578125
2022-04-07 04:49:58	89.2	-0.0013044290244579315	0.0009947889484465122	47.397750599999995	8.5456074	488.0910339355469
2022-04-07 04:49:59	89.2	0.002378096804022789	-0.0012930934317409992	47.397750599999995	8.5456073	488.093017578125
2022-04-07 04:49:59	89.19	-0.000443856930360198	-0.0012358268722891808	47.3977505	8.5456072	488.0940246582031
2022-04-07 04:50:00	89.19	0.00015510874800384045	-0.0007476522587239742	47.3977505	8.5456072	488.0970153808594
2022-04-07 04:50:00	89.19	0.00039641070179641247	0.002029371913522482	47.3977505	8.5456072	488.0980224609375
2022-04-07 04:50:01	89.18	-0.001026025041937828	0.0016979468055069447	47.3977505	8.5456072	488.1050109863281
2022-04-07 04:50:02	89.19	0.0016810409724712372	-0.000567873939871788	47.3977505	8.5456072	488.0970153808594
2022-04-07 04:50:02	89.18	0.0010819041635841131	0.00028585409745574	47.3977505	8.5456072	488.0870361328125
2022-04-07 04:50:03	89.18	0.002768849255517125	-0.00038603972643613815	47.3977504	8.5456072	488.0770263671875
2022-04-07 04:50:03	89.18	0.000130397267639637	0.000330562237650156	47.3977504	8.5456072	488.0660095214844
2022-04-07 04:50:04	89.18	0.0030070305801928043	-1.2898817658424377e-05	47.3977504	8.5456073	488.0700378417969
2022-04-07 04:50:04	89.19	-0.0008276933804154396	-0.0011834139004349709	47.3977504	8.5456073	488.0890197753906
2022-04-07 04:50:05	89.19	0.0021741134114563465	-0.0019224109128117561	47.3977504	8.5456073	488.1020202636719
2022-04-07 04:50:05	89.2	-0.0023179363925009966	-0.0015860190615057945	47.3977504	8.5456073	488.10101318359375
2022-04-07 04:50:06	89.2	0.0018333590123802423	-0.0031422977335751057	47.3977504	8.5456074	488.0920104980469
2022-04-07 04:50:06	89.21000000000001	0.0008880116511136293	-0.0014093713834881783	47.3977504	8.5456074	488.0920104980469
2022-04-07 04:50:07	89.21000000000001	-0.00031635724008083344	-0.0021648025140166283	47.3977504	8.5456074	488.0940246582031
2022-04-07 04:50:07	89.21000000000001	0.0008085959125310183	0.0013789832592010498	47.3977504	8.5456074	488.1090087890625
2022-04-07 04:50:08	89.21000000000001	-0.0008184539619833231	0.0001226002350449562	47.3977504	8.5456075	488.1180114746094
2022-04-07 04:50:08	89.22	0.0014104030560702085	6.747804582118988e-05	47.3977504	8.5456075	488.1230163574219
2022-04-07 04:50:09	89.23	0.0016183825209736824	0.0007083602249622345	47.3977504	8.5456075	488.12603759765625
2022-04-07 04:50:09	89.24	0.001375280087813735	-0.0017295638099312782	47.3977505	8.5456075	488.1250305175781
2022-04-07 04:50:10	89.26	0.000115211121737957	0.0011544018052518368	47.3977505	8.5456076	488.1290283203125
2022-04-07 04:50:10	89.26	-0.0002555216196924448	-0.0004483582451939583	47.3977504	8.5456076	488.1280212402344
2022-04-07 04:50:11	89.27	0.00041070207953453064	9.508617222309113e-05	47.3977505	8.5456076	488.1250305175781
2022-04-07 04:50:11	89.27	-0.0011211836244910955	-0.0005769068375229836	47.3977505	8.5456076	488.1250305175781
2022-04-07 04:50:12	89.27	0.0016251855995506048	-0.0002741962671279907	47.397750599999995	8.5456076	488.1200256347656
2022-04-07 04:50:12	89.29	-0.0007815600838512182	0.0013730949722230434	47.3977505	8.5456075	488.1240234375
2022-04-07 04:50:13	89.29	0.0006583756767213345	0.0021481667645275593	47.3977505	8.5456075	488.1300354003906
2022-04-07 04:50:14	89.29	0.0015421281568706036	0.0006630155257880688	47.3977505	8.5456075	488.1330261230469
2022-04-07 04:50:14	89.3	-0.0013062707148492336	0.0004990934394299984	47.397750599999995	8.5456075	488.1390380859375
2022-04-07 04:50:15	89.3	0.0014450231101363897	-0.0014458810910582542	47.397750599999995	8.5456074	488.13702392578125
2022-04-07 04:50:15	89.3	0.0011135016102343798	0.0017424034886062145	47.397750599999995	8.5456074	488.13702392578125
2022-04-07 04:50:16	89.3	0.0004786490462720394	-0.0013557514175772667	47.397750599999995	8.5456073	488.1330261230469
2022-04-07 04:50:16	89.29	0.000776221277192235	0.0017633233219385147	47.397750599999995	8.5456073	488.1280212402344
2022-04-07 04:50:17	89.31	0.0008956384845077991	0.0006357883103191853	47.397750599999995	8.5456073	488.1330261230469
2022-04-07 04:50:17	89.31	0.0005454118363559246	0.0015993979759514332	47.397750599999995	8.5456073	488.13702392578125
2022-04-07 04:50:18	89.31	0.0028079147450625896	0.0008267834782600403	47.397750599999995	8.5456073	488.135009765625
2022-04-07 04:50:18	89.31	0.00020438525825738907	0.0011539650149643421	47.397750599999995	8.5456074	488.13201904296875
2022-04-07 04:50:19	89.32000000000001	0.00031590694561600685	0.000949107576161623	47.397750699999996	8.5456074	488.134033203125
2022-04-07 04:50:19	89.32000000000001	-2.1479791030287743e-05	0.0003661387600004673	47.397750699999996	8.5456074	488.1240234375
2022-04-07 04:50:20	89.35000000000001	-0.0007525570690631866	0.0001431955024600029	47.397750699999996	8.5456075	488.113037109375
2022-04-07 04:50:20	89.35000000000001	-0.0007039878983050585	0.00045009562745690346	47.397750699999996	8.5456075	488.11102294921875
2022-04-07 04:50:21	89.36	-0.0007388973608613014	0.0020180391147732735	47.397750699999996	8.5456074	488.113037109375
2022-04-07 04:50:21	89.38	0.0009460472501814365	0.00011443020775914192	47.397750699999996	8.5456073	488.11602783203125
2022-04-07 04:50:22	89.39	0.0009648981504142284	0.0009799664840102196	47.397750699999996	8.5456074	488.12103271484375
2022-04-07 04:50:22	89.39	-0.002145952545106411	-0.0024928776547312737	47.397750699999996	8.5456072	488.1310119628906
2022-04-07 04:50:23	89.41	0.0007217524107545614	0.0001650792546570301	47.397750599999995	8.5456072	488.1330261230469
2022-04-07 04:50:23	89.43	-0.000605129636824131	0.00020972779020667076	47.397750599999995	8.5456072	488.1330261230469
2022-04-07 04:50:24	89.43	0.0010928241536021233	-0.0009880554862320423	47.397750599999995	8.5456071	488.1390380859375
2022-04-07 04:50:24	89.43	-0.0014164240565150976	0.0007746471092104912	47.3977505	8.5456071	488.1540222167969
2022-04-07 04:50:25	89.46000000000001	8.71636439114809e-05	0.0014174580574035645	47.3977505	8.5456071	488.1650085449219
2022-04-07 04:50:26	89.47	-0.0018851992208510637	0.00029951799660921097	47.3977505	8.5456071	488.1690368652344
2022-04-07 04:50:26	89.47	0.0013447762466967106	0.0011242995969951153	47.3977504	8.5456072	488.1710205078125
2022-04-07 04:50:27	89.48	0.0009512053802609444	-0.00010330881923437119	47.3977505	8.5456073	488.1670227050781
2022-04-07 04:50:27	89.49	0.0005890547763556242	-6.169313564896584e-05	47.3977505	8.5456072	488.1700134277344
2022-04-07 04:50:28	89.49	-0.00024763518013060093	-0.0015704617835581303	47.3977504	8.5456072	488.1830139160156
2022-04-07 04:50:28	89.5	0.0015620824415236712	-0.001717297825962305	47.3977504	8.5456072	488.18902587890625
2022-04-07 04:50:29	89.5	-0.002438562922179699	0.0014545083977282047	47.3977504	8.5456072	488.1950378417969
2022-04-07 04:50:29	89.51	-0.0002747722901403904	0.001192470546811819	47.3977504	8.5456072	488.2030334472656
2022-04-07 04:50:30	89.51	-0.0004214285872876644	0.002461472060531378	47.3977504	8.5456072	488.2040100097656
2022-04-07 04:50:30	89.52	0.00012218812480568886	0.0012609739787876606	47.3977504	8.5456073	488.18701171875
2022-04-07 04:50:31	89.53	0.00011591752991080284	0.0011548982001841068	47.3977504	8.5456074	488.1770324707031
2022-04-07 04:50:31	89.54	-0.001646309858188033	0.0005281153135001659	47.3977504	8.5456076	488.1800231933594
2022-04-07 04:50:32	89.54	-0.002726107370108366	0.00035256193950772285	47.3977505	8.5456076	488.1820373535156
2022-04-07 04:50:32	89.55	0.0003742557018995285	0.00010842178016901016	47.3977505	8.5456076	488.18402099609375
2022-04-07 04:50:33	89.56	0.001254471018910408	1.8859747797250748e-05	47.3977505	8.5456076	488.1700134277344
2022-04-07 04:50:33	89.57000000000001	0.0025277286767959595	-0.0009408756159245968	47.397750599999995	8.5456075	488.1710205078125
2022-04-07 04:50:34	89.57000000000001	-7.307669147849083e-05	-0.0008940449915826321	47.397750599999995	8.5456075	488.17303466796875
2022-04-07 04:50:34	89.57000000000001	-0.00041049299761652946	0.002572768833488226	47.397750599999995	8.5456075	488.1700134277344
2022-04-07 04:50:35	89.58	-0.0005009914748370647	-0.0023761694319546223	47.3977505	8.5456074	488.1670227050781
2022-04-07 04:50:35	89.59	-2.4392269551753998e-05	-0.0018590972758829594	47.397750599999995	8.5456074	488.1610107421875
2022-04-07 04:50:36	89.59	-0.0029243379831314087	-0.0019712690263986588	47.397750599999995	8.5456074	488.1490173339844
2022-04-07 04:50:36	89.59	-0.002525012707337737	-0.0004693693481385708	47.397750599999995	8.5456075	488.1390380859375
2022-04-07 04:50:37	89.59	-3.545032814145088e-05	0.0020745904184877872	47.397750599999995	8.5456075	488.1290283203125
2022-04-07 04:50:38	89.60000000000001	0.0015287664718925953	0.0010038791224360466	47.397750699999996	8.5456076	488.13201904296875
2022-04-07 04:50:38	89.61	0.0009002671577036381	-0.00016237515956163406	47.397750699999996	8.5456076	488.1280212402344
2022-04-07 04:50:39	89.62	0.00020358385518193245	-0.0012029740028083324	47.397750599999995	8.5456075	488.12701416015625
2022-04-07 04:50:39	89.62	-0.0032466284465044737	-0.0001787310466170311	47.397750599999995	8.5456076	488.1280212402344
2022-04-07 04:50:40	89.64	-0.0015379698015749454	0.00038722483441233635	47.397750599999995	8.5456076	488.12103271484375
2022-04-07 04:50:40	89.65	0.0010757804848253727	-0.0008448273874819279	47.397750599999995	8.5456076	488.12103271484375
2022-04-07 04:50:41	89.66	0.0014089439064264297	0.00325952610000968	47.397750599999995	8.5456076	488.1190185546875
2022-04-07 04:50:41	89.66	0.0008323313668370247	0.0022988305427134037	47.397750599999995	8.5456077	488.12200927734375
2022-04-07 04:50:42	89.68	0.000950357411056757	0.0004369877278804779	47.397750599999995	8.5456077	488.12701416015625
2022-04-07 04:50:42	89.67	-3.915606066584587e-05	0.0020087873563170433	47.397750699999996	8.5456077	488.1330261230469
2022-04-07 04:50:43	89.67	-0.00029329024255275726	-0.0012106816284358501	47.397750699999996	8.5456077	488.1280212402344
2022-04-07 04:50:43	89.68	-0.00019628042355179787	-0.0012082192115485668	47.397750699999996	8.5456076	488.12603759765625
2022-04-07 04:50:44	89.68	-0.00014105206355452538	-0.0022542960941791534	47.397750699999996	8.5456076	488.1360168457031
2022-04-07 04:50:44	89.67	0.0013171834871172905	-0.001440008170902729	47.397750699999996	8.5456075	488.14801025390625
2022-04-07 04:50:45	89.65	0.0008650422096252441	0.0014649201184511185	47.397750699999996	8.5456076	488.1570129394531
2022-04-07 04:50:45	89.65	0.0011361860670149326	0.0008123577572405338	47.397750699999996	8.5456076	488.1690368652344
2022-04-07 04:50:46	89.66	0.0015911427326500416	-0.0004143095575273037	47.3977508	8.5456076	488.1780090332031
2022-04-07 04:50:46	89.66	-0.0004055206663906574	0.0017908611334860325	47.3977508	8.5456077	488.1910095214844
2022-04-07 04:50:47	89.67	0.0012282435782253742	-0.0006230585277080536	47.3977508	8.545607799999999	488.2010192871094
2022-04-07 04:50:47	89.67	-0.0006053613033145666	-0.00224201288074255	47.3977508	8.545607799999999	488.2010192871094
2022-04-07 04:50:48	89.67	0.0021976660937070847	-0.00037492113187909126	47.3977508	8.545607799999999	488.20501708984375
2022-04-07 04:50:48	89.66	0.0023415200412273407	0.0019385605119168758	47.3977508	8.545607799999999	488.21502685546875
2022-04-07 04:50:49	89.66	-2.29482538998127e-05	-1.3130716979503632e-05	47.3977508	8.545607799999999	488.2190246582031
2022-04-07 04:50:50	89.65	-0.0012526926584541798	0.0009228270500898361	47.3977508	8.5456077	488.22802734375
2022-04-07 04:50:50	89.65	0.0009077969007194042	-0.002015939448028803	47.3977508	8.5456077	488.2340087890625
2022-04-07 04:50:51	89.65	-0.0010702707804739475	-0.0009301556274294853	47.3977508	8.5456077	488.2430114746094
2022-04-07 04:50:51	89.65	-0.00019614980556070805	0.0014924476854503155	47.3977509	8.5456077	488.24700927734375
2022-04-07 04:50:52	89.64	0.00045330869033932686	-0.0017751692794263363	47.3977509	8.5456076	488.2500305175781
2022-04-07 04:50:52	89.63	0.0009718439541757107	0.0010685352608561516	47.397751	8.5456076	488.2540283203125
2022-04-07 04:50:53	89.63	0.0009888801723718643	-0.0010569584555923939	47.3977509	8.5456076	488.2500305175781
2022-04-07 04:50:53	89.63	-0.0005218624137341976	-0.0005697570741176605	47.3977508	8.5456075	488.2480163574219
2022-04-07 04:50:54	89.62	0.002475525252521038	-7.324479520320892e-05	47.3977508	8.5456075	488.2530212402344
2022-04-07 04:50:54	89.61	0.0011934111826121807	0.00012049823999404907	47.3977508	8.5456074	488.2530212402344
2022-04-07 04:50:55	89.60000000000001	0.003606051206588745	-0.0005356892943382263	47.3977508	8.5456074	488.2540283203125
2022-04-07 04:50:55	89.59	0.0011014570482075214	0.0009319200180470943	47.3977508	8.5456073	488.2540283203125
2022-04-07 04:50:56	89.58	-0.0010915438178926706	-0.0005837711505591869	47.3977508	8.5456073	488.2490234375
2022-04-07 04:50:56	89.57000000000001	-0.000926212640479207	-0.0009564049541950226	47.3977508	8.5456072	488.2450256347656
2022-04-07 04:50:57	89.58	-0.0002481010742485523	-0.0007898476906120777	47.3977508	8.5456073	488.24700927734375
2022-04-07 04:50:57	89.56	-0.0019288419280201197	-0.0007778969593346119	47.3977508	8.5456074	488.2430114746094
2022-04-07 04:50:58	89.54	0.0013776242267340422	0.001781719271093607	47.3977508	8.5456074	488.238037109375
2022-04-07 04:50:58	89.53	0.0006222529336810112	0.0016390695236623287	47.3977509	8.5456074	488.22802734375
2022-04-07 04:50:59	89.53	0.0018904986791312695	-0.0008124164305627346	47.3977509	8.5456075	488.22003173828125
2022-04-07 04:50:59	89.52	-0.00023196334950625896	-0.00023578573018312454	47.3977509	8.5456075	488.2080383300781
2022-04-07 04:51:00	89.53	0.003616954432800412	0.0010614236816763878	47.3977509	8.5456075	488.1920166015625
2022-04-07 04:51:01	89.52	0.0011064016725867987	-0.0016567213460803032	47.3977509	8.5456075	488.1720275878906
2022-04-07 04:51:01	89.51	-0.00026058638468384743	-0.0003050328232347965	47.397751	8.5456075	488.1570129394531
2022-04-07 04:51:02	89.51	0.0006235223263502121	0.0008940612897276878	47.397751	8.5456075	488.1430358886719
2022-04-07 04:51:02	89.52	-0.0012872740626335144	0.0013249139301478863	47.3977511	8.5456075	488.14501953125
2022-04-07 04:51:03	89.52	-0.0021702898666262627	0.0019519082270562649	47.3977511	8.5456075	488.1330261230469
2022-04-07 04:51:03	89.52	0.00013815122656524181	0.0003008688800036907	47.397751	8.5456075	488.1310119628906
2022-04-07 04:51:04	89.51	0.0006243747193366289	0.0007339473813772202	47.3977509	8.5456075	488.1280212402344
2022-04-07 04:51:04	89.5	-0.0002975473180413246	0.0016409046947956085	47.3977509	8.5456075	488.1150207519531
2022-04-07 04:51:05	89.5	-0.0019167158752679825	-6.143469363451004e-05	47.3977509	8.5456074	488.10003662109375
2022-04-07 04:51:05	89.5	0.00047525460831820965	-0.0018533943220973015	47.3977509	8.5456075	488.08502197265625
2022-04-07 04:51:06	89.49	-0.0009259525686502457	0.0035212626680731773	47.397751	8.5456076	488.07501220703125
2022-04-07 04:51:06	89.49	-0.0007645573932677507	0.0007505039684474468	47.3977509	8.5456077	488.0710144042969
2022-04-07 04:51:07	89.48	-0.00022486154921352863	-0.0008203242905437946	47.3977509	8.5456077	488.0710144042969
2022-04-07 04:51:07	89.48	-0.0012594412546604872	-0.0009924955666065216	47.3977509	8.5456077	488.07403564453125
2022-04-07 04:51:08	89.49	0.0009818954858928919	0.0014847437851130962	47.3977509	8.5456077	488.072021484375
2022-04-07 04:51:08	89.47	0.001179282320663333	0.00218567019328475	47.3977509	8.5456077	488.0660095214844
2022-04-07 04:51:09	89.48	0.0016030948609113693	-0.0021895947866141796	47.3977509	8.5456077	488.0710144042969
2022-04-07 04:51:09	89.47	0.00029935361817479134	0.00012499233707785606	47.3977509	8.5456077	488.07501220703125
2022-04-07 04:51:10	89.46000000000001	-0.003027282888069749	0.0013861153274774551	47.3977509	8.5456076	488.08502197265625
2022-04-07 04:51:10	89.46000000000001	-0.00025457260198891163	-0.0017303386703133583	47.3977508	8.5456076	488.08502197265625
2022-04-07 04:51:11	89.44	-0.0005353360902518034	0.000613535288721323	47.3977508	8.5456076	488.0910339355469
2022-04-07 04:51:11	89.43	0.0043780142441391945	0.003520242404192686	47.3977509	8.5456076	488.0890197753906
2022-04-07 04:51:12	89.41	0.0009795543737709522	-0.0013979044742882252	47.3977509	8.5456074	488.1050109863281
2022-04-07 04:51:13	89.4	0.0013973386958241463	0.002234527375549078	47.3977509	8.5456074	488.1120300292969
2022-04-07 04:51:13	89.39	0.0019121614750474691	-0.00059538334608078	47.3977508	8.5456074	488.114013671875
2022-04-07 04:51:14	89.37	-0.0019674680661410093	-0.000940701924264431	47.3977508	8.5456074	488.12603759765625
2022-04-07 04:51:14	89.36	0.0004103302489966154	-0.0005465103313326836	47.3977508	8.5456074	488.1310119628906
2022-04-07 04:51:15	89.35000000000001	-0.0020319747272878885	-0.0013949894346296787	47.3977508	8.5456074	488.1280212402344
2022-04-07 04:51:15	89.34	-0.0039392211474478245	0.002147439867258072	47.397750699999996	8.5456074	488.1240234375
2022-04-07 04:51:16	89.34	8.697574958205223e-05	0.0032201260328292847	47.397750699999996	8.5456074	488.1170349121094
2022-04-07 04:51:16	89.33	-0.0005228437948971987	-0.001375485211610794	47.3977508	8.5456073	488.113037109375
2022-04-07 04:51:17	89.33	0.0005377663765102625	-0.0008825557306408882	47.3977508	8.5456072	488.1090087890625
2022-04-07 04:51:17	89.33	0.0019035539589822292	0.0012519704177975655	47.3977508	8.5456073	488.1170349121094
2022-04-07 04:51:18	89.32000000000001	0.003050847677513957	-0.0005117710679769516	47.3977508	8.5456073	488.1150207519531
2022-04-07 04:51:18	89.32000000000001	-0.000519610708579421	-0.00022485572844743729	47.3977508	8.5456073	488.10601806640625
2022-04-07 04:51:19	89.3	0.0017425345722585917	-0.0024103382602334023	47.3977508	8.5456073	488.10302734375
2022-04-07 04:51:19	89.3	0.0005249900277704	0.00014569144695997238	47.3977508	8.5456073	488.0990295410156
2022-04-07 04:51:20	89.31	-0.0002591570373624563	0.0001719677820801735	47.3977508	8.5456073	488.09503173828125
2022-04-07 04:51:20	89.31	-8.267187513411045e-05	-0.0019040056504309177	47.3977508	8.5456073	488.0980224609375
2022-04-07 04:51:21	89.31	0.00027625192888081074	-3.949739038944244e-06	47.3977508	8.5456073	488.10601806640625
2022-04-07 04:51:21	89.31	0.0005501981358975172	-0.0011565661989152431	47.3977508	8.5456074	488.1180114746094
2022-04-07 04:51:22	89.32000000000001	-0.0007530511356890202	0.0009298333898186684	47.3977508	8.5456073	488.1280212402344
2022-04-07 04:51:22	89.29	-0.00033700745552778244	0.0001468365080654621	47.397750699999996	8.5456073	488.1310119628906
2022-04-07 04:51:23	89.29	-0.0003233151510357857	-0.0003639138303697109	47.397750699999996	8.5456073	488.12603759765625
2022-04-07 04:51:23	89.29	0.001478123478591442	0.00046334369108080864	47.397750699999996	8.5456073	488.12701416015625
2022-04-07 04:51:24	89.29	-0.0023401237558573484	0.0027435296215116978	47.397750699999996	8.5456073	488.1190185546875
2022-04-07 04:51:25	89.28	0.001223290804773569	0.0013531097210943699	47.397750599999995	8.5456073	488.1240234375
2022-04-07 04:51:25	89.27	0.001807414460927248	-0.0006938204169273376	47.3977505	8.5456072	488.1310119628906
2022-04-07 04:51:26	89.28	-0.0003886313643306494	-0.0019086687825620174	47.397750599999995	8.5456072	488.1360168457031
2022-04-07 04:51:26	89.27	-0.0008120292332023382	-0.002138300333172083	47.397750599999995	8.5456072	488.14202880859375
2022-04-07 04:51:27	89.26	-0.0008162534795701504	-0.0003758738748729229	47.397750599999995	8.5456072	488.1460266113281
2022-04-07 04:51:27	89.26	-0.0014227230567485094	0.00033718952909111977	47.397750599999995	8.5456072	488.1540222167969
2022-04-07 04:51:28	89.26	0.0017535430379211903	-0.0006061769090592861	47.397750599999995	8.5456073	488.1570129394531
2022-04-07 04:51:28	89.26	0.0007534762844443321	-0.0017762696370482445	47.397750599999995	8.5456073	488.1570129394531
2022-04-07 04:51:29	89.25	-0.0002729385159909725	-0.002603745087981224	47.397750599999995	8.5456074	488.14703369140625
2022-04-07 04:51:29	89.25	-0.0012539811432361603	0.0011788555420935154	47.397750599999995	8.5456074	488.1410217285156
2022-04-07 04:51:30	89.23	0.0009702704846858978	0.0006378111429512501	47.397750599999995	8.5456075	488.1330261230469
2022-04-07 04:51:30	89.25	-0.0008177778217941523	-0.00166756147518754	47.397750699999996	8.5456075	488.12200927734375
2022-04-07 04:51:31	89.25	-5.129142664372921e-05	0.0020023430697619915	47.397750599999995	8.5456074	488.114013671875
2022-04-07 04:51:31	89.26	0.0011245827190577984	-0.00012949202209711075	47.397750599999995	8.5456073	488.1080322265625
2022-04-07 04:51:32	89.26	-0.00020985305309295654	-0.0023384541273117065	47.397750599999995	8.5456074	488.09600830078125
2022-04-07 04:51:32	89.26	0.002431439468637109	0.00010938430204987526	47.397750599999995	8.5456074	488.0830383300781
2022-04-07 04:51:33	89.26	-0.0019358182325959206	-0.0009484272450208664	47.397750699999996	8.5456073	488.0790100097656
2022-04-07 04:51:33	89.26	-0.0016239963006228209	0.0004756287671625614	47.397750599999995	8.5456073	488.07501220703125
2022-04-07 04:51:34	89.26	-0.000349563080817461	-0.00037026405334472656	47.397750599999995	8.5456074	488.0570373535156
2022-04-07 04:51:34	89.26	-0.0032056719064712524	0.0012163328938186169	47.397750699999996	8.5456074	488.04302978515625
2022-04-07 04:51:35	89.26	-0.00032732822000980377	-3.1260307878255844e-05	47.397750699999996	8.5456074	488.03802490234375
2022-04-07 04:51:35	89.28	0.0021555176936089993	-0.0011924472637474537	47.397750699999996	8.5456074	488.02801513671875
2022-04-07 04:51:36	89.3	-0.0011771849822252989	0.0002016006037592888	47.397750599999995	8.5456074	488.0190124511719
2022-04-07 04:51:37	89.3	-0.0037319224793463945	-0.0005229306407272816	47.397750699999996	8.5456074	488.0050354003906
2022-04-07 04:51:37	89.3	0.0013706886675208807	-0.0015807929448783398	47.397750699999996	8.5456075	487.9840087890625
2022-04-07 04:51:38	89.3	-2.962956205010414e-05	-0.0014921999536454678	47.397750699999996	8.5456076	487.97503662109375
2022-04-07 04:51:38	89.3	0.0014113583602011204	0.0009056930430233479	47.3977508	8.5456076	487.9730224609375
2022-04-07 04:51:39	89.3	0.00036259135231375694	-0.001580643467605114	47.3977508	8.5456076	487.9720153808594
2022-04-07 04:51:39	89.3	-0.0004944191314280033	-0.00013517914339900017	47.3977508	8.5456077	487.97802734375
2022-04-07 04:51:40	89.29	0.00046371552161872387	-5.2842311561107635e-05	47.3977508	8.545607799999999	487.9840087890625
2022-04-07 04:51:40	89.29	0.00038781436160206795	-0.00048770569264888763	47.3977508	8.545607799999999	487.98602294921875
2022-04-07 04:51:41	89.3	-0.0017545584123581648	-0.0009008669294416904	47.3977508	8.545607799999999	487.9830322265625
2022-04-07 04:51:41	89.29	0.00047549232840538025	0.0010911505669355392	47.3977508	8.545607799999999	487.9850158691406
2022-04-07 04:51:42	89.29	0.0003711753524839878	0.0004024142399430275	47.3977509	8.545607799999999	487.98602294921875
2022-04-07 04:51:42	89.28	-0.001879862742498517	-0.001478707417845726	47.3977509	8.5456079	487.99102783203125
2022-04-07 04:51:43	89.28	-0.0006407615728676319	-0.0017760037444531918	47.3977508	8.545607799999999	487.9900207519531
2022-04-07 04:51:43	89.28	0.00113520841114223	-0.0010455301962792873	47.3977508	8.545607799999999	487.9980163574219
2022-04-07 04:51:44	89.27	-9.638071060180664e-05	-0.004244568292051554	47.3977509	8.5456077	488.00701904296875
2022-04-07 04:51:44	89.26	-7.371418178081512e-05	0.0012709004804491997	47.3977509	8.5456077	488.0140380859375
2022-04-07 04:51:45	89.25	0.0008269459940493107	-0.0005031768232584	47.3977509	8.5456076	488.0210266113281
2022-04-07 04:51:45	89.24	0.0021938751451671124	0.0016592475585639477	47.3977509	8.5456076	488.0240173339844
2022-04-07 04:51:46	89.23	0.0002167795319110155	-0.0010210801847279072	47.397751	8.5456077	488.0290222167969
2022-04-07 04:51:46	89.22	-0.0007825263310223818	0.00164842139929533	47.397751	8.5456077	488.0420227050781
2022-04-07 04:51:47	89.21000000000001	6.538187153637409e-05	-0.0005717910826206207	47.3977509	8.5456076	488.0400085449219
2022-04-07 04:51:47	89.22	-5.8634206652641296e-05	-0.0007593394257128239	47.397751	8.5456076	488.0450134277344
2022-04-07 04:51:48	89.21000000000001	-0.002613736316561699	-4.14201058447361e-05	47.397751	8.5456075	488.0560302734375
2022-04-07 04:51:49	89.21000000000001	0.001539559569209814	0.0001897956244647503	47.397751	8.5456075	488.0760192871094
2022-04-07 04:51:49	89.19	0.0017289759125560522	0.0006654676981270313	47.397751	8.5456075	488.0880126953125
2022-04-07 04:51:50	89.18	0.0015085998456925154	0.0002953908406198025	47.397751	8.5456075	488.0920104980469
2022-04-07 04:51:50	89.17	-0.0011248982045799494	-0.0005522449500858784	47.397751	8.5456075	488.1070251464844
2022-04-07 04:51:51	89.16	-0.0022679667454212904	0.00017066532745957375	47.3977509	8.5456075	488.114013671875
2022-04-07 04:51:51	89.16	0.0014052679762244225	-0.0007104938849806786	47.3977509	8.5456075	488.114013671875
2022-04-07 04:51:52	89.17	0.0007063590455800295	-0.0004028161056339741	47.3977509	8.5456075	488.11602783203125
2022-04-07 04:51:52	89.17	-0.0012778984382748604	-0.0013483241200447083	47.3977509	8.5456074	488.1230163574219
2022-04-07 04:51:53	89.15	-0.00032341224141418934	0.0001586521975696087	47.3977509	8.5456074	488.12701416015625
2022-04-07 04:51:53	89.13	0.0015116578433662653	-0.0010386821813881397	47.3977509	8.5456074	488.1310119628906
2022-04-07 04:51:54	89.11	-0.0004770653322339058	0.0017183474265038967	47.3977508	8.5456075	488.12701416015625
2022-04-07 04:51:54	89.11	-0.00027070706710219383	-0.0017754258587956429	47.3977508	8.5456074	488.12103271484375
2022-04-07 04:51:55	89.10000000000001	-0.0015407523605972528	0.0007404047064483166	47.3977508	8.5456075	488.1240234375
2022-04-07 04:51:55	89.09	-0.0014977206010371447	-0.0005745687521994114	47.3977508	8.5456075	488.1240234375
2022-04-07 04:51:56	89.07000000000001	0.002668161178007722	0.0008155019022524357	47.3977508	8.5456074	488.1250305175781
2022-04-07 04:51:56	89.06	0.002682596677914262	-0.00023504020646214485	47.397750699999996	8.5456074	488.1250305175781
2022-04-07 04:51:57	89.05	0.0010429134126752615	-0.0002712775021791458	47.397750599999995	8.5456073	488.1180114746094
2022-04-07 04:51:57	89.05	-0.0006447052583098412	-0.0003241775557398796	47.397750699999996	8.5456073	488.1300354003906
2022-04-07 04:51:58	89.04	-0.0018262951634824276	0.000789368525147438	47.397750699999996	8.5456073	488.1300354003906
2022-04-07 04:51:58	89.04	0.003207805100828409	0.0013539711944758892	47.397750699999996	8.5456074	488.13201904296875
2022-04-07 04:51:59	89.04	0.001286952756345272	0.0022708731703460217	47.397750699999996	8.5456074	488.1430358886719
2022-04-07 04:51:59	89.03	-4.189112223684788e-05	0.0007638456299901009	47.397750699999996	8.5456074	488.1500244140625
2022-04-07 04:52:00	89.02	0.0021698337513953447	-0.0005744434893131256	47.397750699999996	8.5456075	488.15802001953125
2022-04-07 04:52:01	89.02	0.0011950775515288115	0.0012321751564741135	47.397750699999996	8.5456075	488.1620178222656
2022-04-07 04:52:01	89.02	-1.7830170691013336e-05	0.0005484824068844318	47.397750599999995	8.5456075	488.16302490234375
2022-04-07 04:52:02	89.01	0.001398338470607996	-0.0034727060701698065	47.397750599999995	8.5456075	488.1600341796875
2022-04-07 04:52:02	89.01	0.0009101105388253927	-0.00014126161113381386	47.3977505	8.5456074	488.1490173339844
2022-04-07 04:52:03	89.0	0.00025880266912281513	-0.0013560294173657894	47.3977505	8.5456074	488.1490173339844
2022-04-07 04:52:03	89.0	0.0004788131918758154	-0.00036974111571907997	47.3977505	8.5456074	488.1520080566406
2022-04-07 04:52:04	89.0	-0.0007586844731122255	0.00041859596967697144	47.3977505	8.5456073	488.1610107421875
2022-04-07 04:52:04	89.01	0.0028148768469691277	-0.0002484014257788658	47.3977505	8.5456074	488.166015625
2022-04-07 04:52:05	89.0	-5.7138269767165184e-05	0.0007057022303342819	47.3977504	8.5456074	488.1670227050781
2022-04-07 04:52:05	88.99	-0.00038372818380594254	-0.0013108761049807072	47.3977504	8.5456074	488.1710205078125
2022-04-07 04:52:06	88.98	0.00037636514753103256	0.0022775032557547092	47.3977505	8.5456075	488.1750183105469
2022-04-07 04:52:06	88.97	-0.0005528242327272892	-0.002177742775529623	47.3977505	8.5456075	488.1820373535156
2022-04-07 04:52:07	88.96000000000001	0.0011684976052492857	0.0003253328613936901	47.3977505	8.5456074	488.18701171875
2022-04-07 04:52:07	88.95	0.0011239175219088793	-0.001993662677705288	47.3977505	8.5456074	488.1830139160156
2022-04-07 04:52:08	88.94	-0.00016742711886763573	0.001335719134658575	47.3977505	8.5456073	488.1810302734375
2022-04-07 04:52:08	88.92	0.0004998054355382919	0.0018176930025219917	47.3977505	8.5456072	488.1810302734375
2022-04-07 04:52:09	88.92	0.001293126493692398	-0.0020140372216701508	47.3977504	8.5456073	488.17901611328125
2022-04-07 04:52:09	88.91	0.00036782072857022285	-0.00025983667001128197	47.3977504	8.5456073	488.1820373535156
2022-04-07 04:52:10	88.93	0.0005844570696353912	0.000802263617515564	47.3977505	8.5456074	488.1820373535156
2022-04-07 04:52:10	88.93	-0.0005162162706255913	-0.0006990614347159863	47.397750599999995	8.5456074	488.18701171875
2022-04-07 04:52:11	88.93	-0.0018347539007663727	-0.00031254393979907036	47.397750599999995	8.5456074	488.1850280761719
2022-04-07 04:52:11	88.91	-0.000524893868714571	-0.0014784238301217556	47.397750599999995	8.5456073	488.18402099609375
2022-04-07 04:52:12	88.91	0.0006933491677045822	0.0007647559978067875	47.397750599999995	8.5456074	488.1920166015625
2022-04-07 04:52:13	88.9	0.0007067210972309113	-0.002311759628355503	47.397750699999996	8.5456075	488.1920166015625
2022-04-07 04:52:13	88.91	1.2562144547700882e-05	-0.0011612907983362675	47.397750699999996	8.5456075	488.1920166015625
2022-04-07 04:52:14	88.91	0.0007049734704196453	-0.0007674903608858585	47.397750699999996	8.5456075	488.1900329589844
2022-04-07 04:52:14	88.92	0.0007991502061486244	0.00016248878091573715	47.397750699999996	8.5456075	488.1900329589844
2022-04-07 04:52:15	88.92	0.0007573901675641537	0.0013641295954585075	47.397750699999996	8.5456075	488.18902587890625
2022-04-07 04:52:15	88.93	0.000689399428665638	-0.0020936625078320503	47.397750699999996	8.5456075	488.1950378417969
2022-04-07 04:52:16	88.91	-0.00048042996786534786	-0.0010883733630180359	47.397750699999996	8.5456075	488.20703125
2022-04-07 04:52:16	88.89	0.0027437687385827303	-0.0009866198524832726	47.3977508	8.5456075	488.20501708984375
2022-04-07 04:52:17	88.89	0.0012151109986007214	-0.0004869997501373291	47.3977508	8.5456075	488.2030334472656
2022-04-07 04:52:17	88.88	0.0016622340772300959	0.0003634262830018997	47.397750699999996	8.5456075	488.2040100097656
2022-04-07 04:52:18	88.87	-0.0010947624687105417	0.00012398138642311096	47.397750699999996	8.5456075	488.1960144042969
2022-04-07 04:52:18	88.87	0.001802950631827116	-0.0006271693855524063	47.397750699999996	8.5456074	488.2040100097656
2022-04-07 04:52:19	88.86	-0.0013868722598999739	-0.0004018968902528286	47.397750699999996	8.5456074	488.21002197265625
2022-04-07 04:52:19	88.86	0.0010726929176598787	0.0006361943669617176	47.397750699999996	8.5456074	488.21502685546875
2022-04-07 04:52:20	88.84	0.0020009861327707767	0.0005972357466816902	47.397750699999996	8.5456073	488.2120361328125
2022-04-07 04:52:20	88.84	0.00021053291857242584	0.0019159265793859959	47.397750699999996	8.5456073	488.20703125
2022-04-07 04:52:21	88.84	0.001989542506635189	-0.0011422517709434032	47.397750699999996	8.5456074	488.2090148925781
2022-04-07 04:52:21	88.83	0.0005402110982686281	0.0008573289960622787	47.3977508	8.5456074	488.2110290527344
2022-04-07 04:52:22	88.83	-0.0006406756583601236	-0.000948768574744463	47.397750699999996	8.5456073	488.2060241699219
2022-04-07 04:52:22	88.82000000000001	-0.001992005156353116	0.0013265050947666168	47.397750599999995	8.5456073	488.20703125
2022-04-07 04:52:23	88.82000000000001	0.001155179925262928	0.0006501725874841213	47.397750599999995	8.5456073	488.2060241699219
2022-04-07 04:52:23	88.82000000000001	-5.6584132835268974e-05	0.0007913848385214806	47.397750599999995	8.5456073	488.2060241699219
2022-04-07 04:52:24	88.82000000000001	-0.0014384326059371233	-0.0005931532941758633	47.397750599999995	8.5456072	488.2060241699219
2022-04-07 04:52:25	88.81	0.0018924649339169264	1.843273639678955e-05	47.397750599999995	8.5456071	488.21502685546875
2022-04-07 04:52:25	88.81	0.0011435330379754305	-0.0031881784088909626	47.397750599999995	8.5456071	488.2160339355469
2022-04-07 04:52:26	88.81	0.002543897833675146	0.00043508317321538925	47.3977505	8.5456071	488.2130126953125
2022-04-07 04:52:26	88.8	-0.0006386132445186377	-0.00019743619486689568	47.3977505	8.545607	488.2030334472656
2022-04-07 04:52:27	88.81	-0.0006281132809817791	0.002029421739280224	47.397750599999995	8.5456072	488.18701171875
2022-04-07 04:52:27	88.81	3.114575520157814e-06	-0.0015646349638700485	47.397750599999995	8.5456071	488.17303466796875
2022-04-07 04:52:28	88.81	-0.0022907527163624763	0.002979735843837261	47.397750599999995	8.5456071	488.1500244140625
2022-04-07 04:52:28	88.81	0.0010139488149434328	-0.0017238594591617584	47.397750599999995	8.545607	488.13201904296875
2022-04-07 04:52:29	88.81	-0.001515320735052228	-2.0207371562719345e-05	47.397750699999996	8.545607	488.1240234375
2022-04-07 04:52:29	88.81	0.0022370130755007267	-0.001042899675667286	47.397750699999996	8.545607	488.1150207519531
2022-04-07 04:52:30	88.81	0.0014586164616048336	-0.005909814033657312	47.397750699999996	8.545607	488.1050109863281
2022-04-07 04:52:30	88.81	-0.0009145238436758518	-0.0003267573192715645	47.397750699999996	8.545607	488.0980224609375
2022-04-07 04:52:31	88.81	-5.776365287601948e-05	-0.0004550684243440628	47.397750699999996	8.545607	488.0880126953125
2022-04-07 04:52:31	88.82000000000001	-0.00039382907561957836	0.0004949783906340599	47.397750699999996	8.545607	488.0710144042969
2022-04-07 04:52:32	88.82000000000001	-0.0005156171973794699	-0.00044671259820461273	47.397750699999996	8.545607	488.0680236816406
2022-04-07 04:52:32	88.81	0.0010972905438393354	0.0004773982800543308	47.397750699999996	8.545607	488.0650329589844
2022-04-07 04:52:33	88.81	-0.0006030506920069456	-0.0007504657842218876	47.397750699999996	8.5456069	488.0670166015625
2022-04-07 04:52:33	88.83	0.00013939733617007732	0.0010541160590946674	47.397750699999996	8.545607	488.06402587890625
2022-04-07 04:52:34	88.84	0.001484839478507638	-0.0015147528611123562	47.397750699999996	8.5456069	488.06103515625
2022-04-07 04:52:34	88.83	0.0015076836571097374	-0.0024642804637551308	47.397750699999996	8.5456069	488.06402587890625
2022-04-07 04:52:35	88.84	0.0006319917738437653	-0.0018861731514334679	47.397750699999996	8.5456069	488.05902099609375
2022-04-07 04:52:35	88.85000000000001	-0.0005455068312585354	0.0010795197449624538	47.397750699999996	8.545607	488.0580139160156
2022-04-07 04:52:36	88.84	0.002425452694296837	0.00047699688002467155	47.397750699999996	8.545607	488.0530090332031
2022-04-07 04:52:37	88.86	0.0013787453062832355	-0.0015066619962453842	47.397750599999995	8.5456069	488.0520324707031
2022-04-07 04:52:37	88.87	0.0007849032990634441	-0.0019097784534096718	47.397750599999995	8.5456069	488.0530090332031
2022-04-07 04:52:38	88.88	0.0015707975253462791	-0.001836259849369526	47.397750599999995	8.5456069	488.05401611328125
2022-04-07 04:52:38	88.88	-0.0001793690025806427	-0.001038065180182457	47.397750599999995	8.545607	488.0630187988281
2022-04-07 04:52:39	88.91	0.0009972713887691498	-0.0012545152567327023	47.3977505	8.5456071	488.0700378417969
2022-04-07 04:52:39	88.93	-0.0016616194043308496	-0.0013946541585028172	47.3977505	8.5456071	488.0760192871094
2022-04-07 04:52:40	88.95	0.0021753134205937386	-8.6258165538311e-05	47.3977505	8.5456072	488.09002685546875
2022-04-07 04:52:40	88.96000000000001	-0.0015679404605180025	-0.00012066448107361794	47.3977505	8.5456072	488.1050109863281
2022-04-07 04:52:41	88.97	-0.0012572486884891987	0.0009193574078381062	47.3977505	8.5456073	488.1090087890625
2022-04-07 04:52:41	89.0	0.0031508104875683784	-0.0006435615941882133	47.3977505	8.5456073	488.1180114746094
2022-04-07 04:52:42	89.01	-0.00026706745848059654	-0.0025353645905852318	47.3977505	8.5456073	488.1280212402344
2022-04-07 04:52:42	89.03	-0.0004306479822844267	0.0027264831587672234	47.3977505	8.5456074	488.1300354003906
2022-04-07 04:52:43	89.05	-0.0011888612061738968	-0.0030780788511037827	47.3977505	8.5456074	488.14202880859375
2022-04-07 04:52:43	89.07000000000001	-0.0025762831792235374	-0.001627245917916298	47.3977505	8.5456074	488.15802001953125
2022-04-07 04:52:44	89.10000000000001	-0.002687290543690324	-0.001414317637681961	47.3977505	8.5456075	488.1650085449219
2022-04-07 04:52:44	89.12	0.0013726884499192238	7.842015475034714e-05	47.397750599999995	8.5456075	488.1650085449219
2022-04-07 04:52:45	89.14	-0.0002931675408035517	0.0002826242707669735	47.397750599999995	8.5456075	488.1710205078125
2022-04-07 04:52:45	89.15	-0.000303380424156785	-0.0019454783760011196	47.397750699999996	8.5456075	488.1750183105469
2022-04-07 04:52:46	89.19	0.0005756057798862457	-0.0031916466541588306	47.397750699999996	8.5456075	488.1830139160156
2022-04-07 04:52:46	89.21000000000001	0.002081481274217367	-0.0013776379637420177	47.397750599999995	8.5456076	488.1850280761719
2022-04-07 04:52:47	89.24	0.001573850866407156	7.579149678349495e-05	47.397750599999995	8.5456076	488.1910095214844
2022-04-07 04:52:47	89.24	0.0004380750469863415	0.002345206681638956	47.397750599999995	8.5456075	488.18701171875
2022-04-07 04:52:48	89.26	-0.001844232203438878	-0.0005761561915278435	47.397750699999996	8.5456076	488.1850280761719
2022-04-07 04:52:49	89.27	-0.00010189786553382874	0.0010529551655054092	47.397750699999996	8.5456076	488.1850280761719
2022-04-07 04:52:49	89.29	0.0029601757414638996	-0.0012797522358596325	47.397750699999996	8.5456076	488.1820373535156
2022-04-07 04:52:50	89.29	-0.002416954841464758	-0.00013836706057190895	47.397750699999996	8.5456076	488.17401123046875
2022-04-07 04:52:50	89.3	-0.0018625168595463037	-0.0003448380157351494	47.3977508	8.5456076	488.1610107421875
2022-04-07 04:52:51	89.32000000000001	-0.0014397138729691505	0.0008705821819603443	47.3977508	8.5456076	488.1560363769531
2022-04-07 04:52:51	89.34	-0.0007247726898640394	0.0006055585108697414	47.3977508	8.5456076	488.155029296875
2022-04-07 04:52:52	89.35000000000001	0.000979127362370491	0.000658825971186161	47.3977508	8.5456075	488.15802001953125
2022-04-07 04:52:52	89.36	-0.0011440236121416092	0.0013609277084469795	47.3977508	8.5456075	488.16302490234375
2022-04-07 04:52:53	89.38	-0.002121339552104473	-0.00042893318459391594	47.3977508	8.5456074	488.1590270996094
2022-04-07 04:52:53	89.38	0.0017502373084425926	-0.0021114004775881767	47.3977508	8.5456075	488.15802001953125
2022-04-07 04:52:54	89.39	-0.002336028730496764	0.0005390383303165436	47.3977508	8.5456074	488.16302490234375
2022-04-07 04:52:54	89.4	0.001284922007471323	0.00012359721586108208	47.3977509	8.5456074	488.16302490234375
2022-04-07 04:52:55	89.41	0.0005388697609305382	-0.002954694442451	47.3977509	8.5456073	488.1640319824219
2022-04-07 04:52:55	89.41	-0.0005124998278915882	0.00016217073425650597	47.397751	8.5456073	488.1640319824219
2022-04-07 04:52:56	89.43	-0.001101640984416008	-0.0031288382597267628	47.397751	8.5456073	488.1570129394531
2022-04-07 04:52:56	89.44	0.001992484088987112	0.0031643370166420937	47.3977509	8.5456074	488.15802001953125
2022-04-07 04:52:57	89.44	-0.001348200486972928	0.0018442803993821144	47.3977509	8.5456073	488.1570129394531
2022-04-07 04:52:57	89.45	0.0007608276791870594	0.002152032218873501	47.3977508	8.5456073	488.1600341796875
2022-04-07 04:52:58	89.45	0.004115429241210222	-0.0017001046799123287	47.3977508	8.5456073	488.1590270996094
2022-04-07 04:52:58	89.46000000000001	-7.683224976062775e-05	0.0006601461209356785	47.3977508	8.5456073	488.1510314941406
2022-04-07 04:52:59	89.46000000000001	-0.00010631885379552841	0.003676543477922678	47.3977508	8.5456073	488.1460266113281
2022-04-07 04:52:59	89.47	-0.000993830617517233	0.00025793490931391716	47.3977508	8.5456073	488.14501953125
2022-04-07 04:53:00	89.48	-0.000982536468654871	-0.00043680332601070404	47.3977508	8.5456073	488.1400146484375
2022-04-07 04:53:01	89.48	0.0013583744876086712	0.0009402856230735779	47.397750699999996	8.5456073	488.12701416015625
2022-04-07 04:53:01	89.49	0.0014899112284183502	-9.227171540260315e-05	47.397750699999996	8.5456073	488.1180114746094
2022-04-07 04:53:02	89.51	0.0007328605279326439	-0.0018082908354699612	47.397750699999996	8.5456073	488.113037109375
2022-04-07 04:53:02	89.52	2.7680303901433945e-05	0.0006720046512782574	47.397750599999995	8.5456072	488.1100158691406
2022-04-07 04:53:03	89.55	-0.00044734287075698376	-0.0017535584047436714	47.397750599999995	8.5456072	488.1050109863281
2022-04-07 04:53:03	89.56	0.0007636253722012043	0.0003227521665394306	47.397750699999996	8.5456072	488.10101318359375
2022-04-07 04:53:04	89.58	0.0006969068199396133	-0.0037306842859834433	47.397750699999996	8.5456071	488.0940246582031
2022-04-07 04:53:04	89.60000000000001	0.0006626271642744541	0.0010988293215632439	47.397750699999996	8.5456071	488.0920104980469
2022-04-07 04:53:05	89.60000000000001	0.0018952875398099422	0.0006182189099490643	47.397750699999996	8.5456071	488.0890197753906
2022-04-07 04:53:05	89.61	-0.0023911776952445507	-0.00012580491602420807	47.3977508	8.5456072	488.0980224609375
2022-04-07 04:53:06	89.63	-0.0019087200053036213	-0.0005035083740949631	47.3977508	8.5456072	488.1070251464844
2022-04-07 04:53:06	89.65	-0.0006498587317764759	-0.0008951486088335514	47.3977508	8.5456072	488.1100158691406
2022-04-07 04:53:07	89.68	-0.0004665856249630451	-0.0027929176576435566	47.3977508	8.5456073	488.11102294921875
2022-04-07 04:53:07	89.71000000000001	0.00021033594384789467	-0.0007711411453783512	47.3977508	8.5456073	488.10302734375
2022-04-07 04:53:08	89.72	-0.002313495147973299	0.0007024756632745266	47.3977509	8.5456073	488.0970153808594
2022-04-07 04:53:08	89.75	0.003363272175192833	-0.00036549707874655724	47.3977509	8.5456074	488.0880126953125
2022-04-07 04:53:09	89.76	0.0003062351606786251	-0.00025385618209838867	47.3977509	8.5456074	488.0910339355469
2022-04-07 04:53:09	89.79	0.00011969497427344322	-0.0013647624291479588	47.3977508	8.5456074	488.0880126953125
2022-04-07 04:53:10	89.79	0.004726357292383909	-0.0011088312603533268	47.3977508	8.5456073	488.08203125
2022-04-07 04:53:10	89.81	-0.0016687966417521238	-0.0007750713266432285	47.3977509	8.5456073	488.0870361328125
2022-04-07 04:53:11	89.84	0.0018158825114369392	-0.0006420188583433628	47.3977509	8.5456073	488.08502197265625
2022-04-07 04:53:12	89.87	-0.0014287217054516077	0.0020403009839355946	47.3977509	8.5456073	488.0890197753906
2022-04-07 04:53:12	89.9	-0.0025082239881157875	0.0019354084506630898	47.3977508	8.5456073	488.0920104980469
2022-04-07 04:53:13	89.92	0.001837016548961401	-0.0022682873532176018	47.3977509	8.5456074	488.09503173828125
2022-04-07 04:53:13	89.94	0.0017341007478535175	-0.0005076820962131023	47.3977509	8.5456074	488.1020202636719
2022-04-07 04:53:14	89.96000000000001	0.002223013900220394	-0.0007317704148590565	47.3977509	8.5456074	488.1040344238281
2022-04-07 04:53:14	89.99	3.554718568921089e-05	0.0023349174298346043	47.3977509	8.5456074	488.09600830078125
2022-04-07 04:53:15	90.02	-0.001920752925798297	-0.00036922888830304146	47.3977508	8.5456074	488.09503173828125
2022-04-07 04:53:15	90.02	0.0009368141181766987	0.0010904869996011257	47.3977508	8.5456074	488.0970153808594
2022-04-07 04:53:16	90.03	0.0006318660452961922	0.0007212446071207523	47.3977508	8.5456075	488.10003662109375
2022-04-07 04:53:16	90.05	0.0011030840687453747	0.002550729550421238	47.3977508	8.5456076	488.1050109863281
2022-04-07 04:53:17	90.07000000000001	0.0011921352706849575	0.0018162485212087631	47.3977508	8.5456077	488.11102294921875
2022-04-07 04:53:17	90.09	-0.0005023102276027203	8.06804746389389e-06	47.3977508	8.5456077	488.1150207519531
2022-04-07 04:53:18	90.09	0.0006438572891056538	-0.0016790335066616535	47.3977508	8.5456077	488.114013671875
2022-04-07 04:53:18	90.10000000000001	0.0007516727782785892	0.001118957530707121	47.3977508	8.545607799999999	488.114013671875
2022-04-07 04:53:19	90.11	-0.0005356865003705025	-0.0005856580100953579	47.3977508	8.5456077	488.1080322265625
2022-04-07 04:53:19	90.12	0.00338775385171175	-0.0024230009876191616	47.397750699999996	8.5456077	488.0970153808594
2022-04-07 04:53:20	90.12	0.00037012994289398193	-0.0003888900391757488	47.397750699999996	8.545607799999999	488.093017578125
2022-04-07 04:53:20	90.13	0.0001662946306169033	6.855139508843422e-05	47.397750599999995	8.545607799999999	488.09002685546875
2022-04-07 04:53:21	90.14	-0.0010362337343394756	-0.0010099411010742188	47.397750599999995	8.545607799999999	488.0830383300781
